id	Name	id_sub	Town	Prefecture	lat	long	facility type	corroboration level	ETNAM 	Shawn Zhang list	Shawn Zhang #	ASPI 2020 #	XJVDB	Media reports	Researchers	Links	Links 2	Links 3	Links 4
																			
																			
																			
106	Shufu - I	B	Shufu	Kashgar	39.3591944444444	75.8638888888889	camp	corroborated	P_QE04, C_QE05 	Shawn Zhang	1	336				https://medium.com/@shawnwzhang/satellite-imagery-of-xinjiang-re-education-camp-%E6%96%B0%E7%96%86%E5%86%8D%E6%95%99%E8%82%B2%E9%9B%86%E4%B8%AD%E8%90%A5%E5%8D%AB%E6%98%9F%E5%9B%BE-96691b1a0d62			
107	Yecheng - I	A	Yecheng	Kashgar	37.9167777777778	77.3514722222222	camp	corroborated	C_QE37	Shawn Zhang	4	18				https://medium.com/@shawnwzhang/satellite-imagery-of-xinjiang-re-education-Pre-2016 programme - detention centre-4-%E6%96%B0%E7%96%86%E5%86%8D%E6%95%99%E8%82%B2%E9%9B%86%E4%B8%AD%E8%90%A5%E5%8D%AB%E6%98%9F%E5%9B%BE-4-ded2f9b4eb38 			
108	Kashgar - I		Kashgar	Kashgar	39.4316666666667	76.05575	camp	corroborated	C_QE01	Shawn Zhang	2	90				https://medium.com/@shawnwzhang/satellite-imagery-of-xinjiang-re-education-camp-%E6%96%B0%E7%96%86%E5%86%8D%E6%95%99%E8%82%B2%E9%9B%86%E4%B8%AD%E8%90%A5%E5%8D%AB%E6%98%9F%E5%9B%BE-2-d6d2ad768977			
109	Hotan County - I	A	Hotan County	Hotan	37.2497777777778	79.8480555555555	detention center	corroborated	P_HO04, C_HO05 	Shawn Zhang	5	6	XJV DB	BBC, China Daily		https://www.bbc.co.uk/news/resources/idt-sh/China_hidden_Pre-2016 programme - detention centres	https://www.youtube.com/watch?v=v_XI-aiCa34	https://shahit.biz/eng/#facilities	
110	Shule - I	B	Shule	Kashgar	39.3581111111111	76.0511388888889	camp	corroborated	P_QE07, C_QE13 	Shawn Zhang	3	317		Economist, Bitter Winter		https://www.economist.com/briefing/2018/05/31/china-has-turned-xinjiang-into-a-police-state-like-no-other	https://bitterwinter.org/more-Pre-2016 programme - detention centres-for-muslims/		
111	Hotan City - VI		Hotan City	Hotan	37.1118055555556	79.9708333333333	camp	corroborated		Shawn Zhang	6	35				https://medium.com/@shawnwzhang/satellite-imagery-of-xinjiang-re-education-Pre-2016 programme - detention centre-6-%E6%96%B0%E7%96%86%E5%86%8D%E6%95%99%E8%82%B2%E9%9B%86%E4%B8%AD%E8%90%A5%E5%8D%AB%E6%98%9F%E5%9B%BE-6-7ba1c51cfb32			
112	Karakax - I		Karakax	Hotan	37.1118611111111	79.6419166666667	camp	corroborated	P_HO11, C_HO12, C_HO13 	Shawn Zhang	7	49	XJV DB		Zenz, Karakax list	https://www.jpolrisk.com/karakax/		https://shahit.biz/eng/#facilities	
113	Makit - I	B	Makit	Kashgar	38.8375833333333	77.7074722222222	camp	corroborated	P_QE17, C_QE23 	Shawn Zhang	8	110				https://medium.com/@shawnwzhang/satellite-imagery-of-xinjiang-re-education-camp-8-%E6%96%B0%E7%96%86%E5%86%8D%E6%95%99%E8%82%B2%E9%9B%86%E4%B8%AD%E8%90%A5%E5%8D%AB%E6%98%9F%E5%9B%BE-8-b64aef1ac67f			
114	Jiashi - I	A	Jiashi	Kashgar	39.5386111111111	76.7139166666667	camp	corroborated	P_QE13, C_QE19 	Shawn Zhang	9	210	XJV DB			https://medium.com/@shawnwzhang/satellite-imagery-of-xinjiang-re-education-camp-8-%E6%96%B0%E7%96%86%E5%86%8D%E6%95%99%E8%82%B2%E9%9B%86%E4%B8%AD%E8%90%A5%E5%8D%AB%E6%98%9F%E5%9B%BE-8-a8b2b303d7f3		https://shahit.biz/eng/#facilities	
115	Zepu - I		Zepu	Kashgar	38.0861805555556	77.1128361111111	camp	corroborated	C_QE34	Shawn Zhang	10	347				https://medium.com/@shawnwzhang/satellite-imagery-of-xinjiang-re-education-camp-10-%E6%96%B0%E7%96%86%E5%86%8D%E6%95%99%E8%82%B2%E9%9B%86%E4%B8%AD%E8%90%A5%E5%8D%AB%E6%98%9F%E5%9B%BE-10-e0d5a86c6d16			
116	Shule - II		Shule	Kashgar	39.3820611111111	76.0725027777778	camp	corroborated	C_QE11	Shawn Zhang	13	329				https://medium.com/@shawnwzhang/satellite-imagery-of-xinjiang-re-education-Pre-2016 programme - detention centre-13-%E6%96%B0%E7%96%86%E5%86%8D%E6%95%99%E8%82%B2%E9%9B%86%E4%B8%AD%E8%90%A5%E5%8D%AB%E6%98%9F%E5%9B%BE-13-3d83e54cecab			
117	Shule - III		Shule	Kashgar	39.3808055555556	76.0782222222222	camp	corroborated	C_QE12	Shawn Zhang	15	58				https://medium.com/@shawnwzhang/satellite-imagery-of-xinjiang-re-education-camp-15-%E6%96%B0%E7%96%86%E5%86%8D%E6%95%99%E8%82%B2%E9%9B%86%E4%B8%AD%E8%90%A5%E5%8D%AB%E6%98%9F%E5%9B%BE-15-305c8c76e58f			
118	Bachu - I		Bachu	Kashgar	39.8252777777778	78.5501111111111	camp	corroborated	C_QE22	Shawn Zhang	16	104				https://medium.com/@shawnwzhang/satellite-imagery-of-xinjiang-re-education-camp-16-%E6%96%B0%E7%96%86%E5%86%8D%E6%95%99%E8%82%B2%E9%9B%86%E4%B8%AD%E8%90%A5%E5%8D%AB%E6%98%9F%E5%9B%BE-16-328d73d0ee70			
119	Kashgar - IV		Kashgar	Kashgar	39.4571111111111	76.0419444444444	camp	corroborated	C_QE03	Shawn Zhang	17,18,19	29				https://medium.com/@shawnwzhang/satellite-imagery-of-xinjiang-re-education-Pre-2016 programme - detention centre-17-%E6%96%B0%E7%96%86%E5%86%8D%E6%95%99%E8%82%B2%E9%9B%86%E4%B8%AD%E8%90%A5%E5%8D%AB%E6%98%9F%E5%9B%BE-17-34bd77f4428a			
120	Kashgar - V		Kashgar	Kashgar	39.4568333333333	75.9753333333333	camp	closed	C_QE04	Shawn Zhang	17,18,19					https://medium.com/@shawnwzhang/satellite-imagery-of-xinjiang-re-education-Pre-2016 programme - detention centre-17-%E6%96%B0%E7%96%86%E5%86%8D%E6%95%99%E8%82%B2%E9%9B%86%E4%B8%AD%E8%90%A5%E5%8D%AB%E6%98%9F%E5%9B%BE-17-34bd77f4428a			
121	Kashgar - VI		Kashgar	Kashgar	39.4693055555556	75.9694722222222	camp	closed		Shawn Zhang	17,18,19			BuzzFeed News		https://www.buzzfeednews.com/article/meghara/the-police-state-of-the-future-is-already-here			
122	Yecheng - II		Yecheng	Kashgar	37.8511944444444	77.4370277777778	camp	corroborated	C_QE38	Shawn Zhang	20	186				https://medium.com/@shawnwzhang/satellite-imagery-of-xinjiang-re-education-camp-20-%E6%96%B0%E7%96%86%E5%86%8D%E6%95%99%E8%82%B2%E9%9B%86%E4%B8%AD%E8%90%A5%E5%8D%AB%E6%98%9F%E5%9B%BE-20-ee8a576c124b			
123	Karakax - IV		Karakax	Hotan	37.2521944444444	79.7218888888889	camp	corroborated	C_HO14	Shawn Zhang	21	21	XJV DB		Zenz, Karakax list	https://www.jpolrisk.com/karakax/	https://shahit.biz/eng/#facilities		
124	Akto - VII		Akto	Kizilsu	39.1479166666667	75.9522222222222	camp	corroborated	C_AR07, C_AR08 	Shawn Zhang	22	257				https://medium.com/@shawnwzhang/satellite-imagery-of-xinjiang-re-education-Pre-2016 programme - detention centre-22-%E6%96%B0%E7%96%86%E5%86%8D%E6%95%99%E8%82%B2%E9%9B%86%E4%B8%AD%E8%90%A5%E5%8D%AB%E6%98%9F%E5%9B%BE-22-417b629045d6			
125	Yining County - VII		Yining County	Ili	43.9744305555556	81.4961555555556	camp	corroborated	C_GH07	Shawn Zhang	24	65	XJV DB	BBC		https://www.bbc.co.uk/news/resources/idt-sh/China_hidden_Pre-2016 programme - detention centres	https://medium.com/@shawnwzhang/satellite-imagery-of-xinjiang-re-education-Pre-2016 programme - detention centre-24-%E6%96%B0%E7%96%86%E5%86%8D%E6%95%99%E8%82%B2%E9%9B%86%E4%B8%AD%E8%90%A5%E5%8D%AB%E6%98%9F%E5%9B%BE-24-3f39057838fe	https://shahit.biz/eng/#facilities	
126	Korla - I		Korla	Bayingolin	41.7050444444444	86.2833722222222	camp	corroborated	C_KO01	Shawn Zhang	25	243				https://medium.com/@shawnwzhang/satellite-imagery-of-xinjiang-re-education-camp-25-%E6%96%B0%E7%96%86%E5%86%8D%E6%95%99%E8%82%B2%E9%9B%86%E4%B8%AD%E8%90%A5%E5%8D%AB%E6%98%9F%E5%9B%BE-25-c4dd36cf60f3			
127	Shufu - II		Shufu	Kashgar	39.33253536	75.68783723	camp	corroborated	C_QE06	Shawn Zhang	26	72	XJV DB			https://medium.com/@shawnwzhang/satellite-imagery-of-xinjiang-re-education-camp-26-%E6%96%B0%E7%96%86%E5%86%8D%E6%95%99%E8%82%B2%E9%9B%86%E4%B8%AD%E8%90%A5%E5%8D%AB%E6%98%9F%E5%9B%BE-26-cce4df07beea	https://shahit.biz/eng/#facilities		
128	Akto - I		Akto	Kizilsu	39.2602777777778	76.0017638888889	camp	corroborated	C_AR11	Shawn Zhang	27	348		Bitter Winter		https://medium.com/@shawnwzhang/satellite-imagery-of-xinjiang-re-education-Pre-2016 programme - detention centre-27-%E6%96%B0%E7%96%86%E5%86%8D%E6%95%99%E8%82%B2%E9%9B%86%E4%B8%AD%E8%90%A5%E5%8D%AB%E6%98%9F%E5%9B%BE-27-ddb9eed70438	https://bitterwinter.org/another-Pre-2016 programme - detention centre-for-muslims-discovered-in-xinjiang/		
129	Jiashi - IV		Jiashi	Kashgar	39.43825	76.7404722222222	camp	corroborated	C_QE18	Shawn Zhang	28	138, 128				https://medium.com/@shawnwzhang/satellite-imagery-of-xinjiang-re-education-camp-28-%E6%96%B0%E7%96%86%E5%86%8D%E6%95%99%E8%82%B2%E9%9B%86%E4%B8%AD%E8%90%A5%E5%8D%AB%E6%98%9F%E5%9B%BE-28-1b5ea249494b			
130	Dabancheng - I	A	Dabancheng	örÅmqi	43.3838333333333	88.2883888888889	prison - medium security	corroborated	P_UR23	Shawn Zhang	29	50		BBC		https://www.bbc.co.uk/news/resources/idt-sh/China_hidden_Pre-2016 programme - detention centres			
131	Hotan City - I	A	Hotan City	Hotan	37.1638333333333	79.8669166666667	camp	corroborated	P_HO02, C_HO01 	Shawn Zhang	30	60				https://medium.com/@shawnwzhang/satellite-imagery-of-xinjiang-re-education-Pre-2016 programme - detention centre-30-%E6%96%B0%E7%96%86%E5%86%8D%E6%95%99%E8%82%B2%E9%9B%86%E4%B8%AD%E8%90%A5%E5%8D%AB%E6%98%9F%E5%9B%BE-30-f99ee2008d42			
132	Yizhou - VI		Yizhou	Hami	42.8114722222222	93.4336111111111	camp	corroborated	C_QU01	Shawn Zhang	31	154		Bitter Winter		https://bitterwinter.org/Pre-2016 programme - detention centre-uyghur-muslims-video/	https://www.youtube.com/watch?v=OJseKFJMaDw		
133	Huocheng - I		Huocheng	Ili	44.02525	80.8740833333333	camp	corroborated	C_GH16	Shawn Zhang	32	3, 226		Bitter Winter		https://bitterwinter.org/hospitals-turned-into-internment-Pre-2016 programme - detention centres/			
134	Aksu - IV		Aksu	Aksu	41.117	80.1618611111111	camp	corroborated		Shawn Zhang	33					https://medium.com/@shawnwzhang/satellite-imagery-of-xinjiang-re-education-Pre-2016 programme - detention centre-33-%E6%96%B0%E7%96%86%E5%86%8D%E6%95%99%E8%82%B2%E9%9B%86%E4%B8%AD%E8%90%A5%E5%8D%AB%E6%98%9F%E5%9B%BE-33-3927a1026acd			
135	Aksu - I		Aksu	Aksu	41.1242222222222	80.1723055555556	camp	corroborated	C_AQ01	Shawn Zhang	53	228				https://medium.com/@shawnwzhang/satellite-imagery-of-xinjiang-re-education-Pre-2016 programme - detention centre-53-%E6%96%B0%E7%96%86%E5%86%8D%E6%95%99%E8%82%B2%E9%9B%86%E4%B8%AD%E8%90%A5%E5%8D%AB%E6%98%9F%E5%9B%BE-53-79cdb76892d8			
136	Kuqa - II		Kuqa	Aksu	41.73125	83.0079722222222	camp	corroborated	C_AQ15	Shawn Zhang	34	183		BBC		https://medium.com/@shawnwzhang/satellite-imagery-of-xinjiang-re-education-Pre-2016 programme - detention centre-34-%E6%96%B0%E7%96%86%E5%86%8D%E6%95%99%E8%82%B2%E9%9B%86%E4%B8%AD%E8%90%A5%E5%8D%AB%E6%98%9F%E5%9B%BE-34-7a9890946fb3	https://www.bbc.co.uk/news/extra/nz0g306v8c/china-tainted-cotton		
137	Gaochang - I		Gaochang	Turpan	42.9608888888889	89.2171666666667	camp	corroborated	C_TU04	Shawn Zhang	36	222		WSJ		https://www.wsj.com/articles/chinas-uighur-Pre-2016 programme - detention centres-swell-as-beijing-widens-the-dragnet-1534534894			
138	Kashgar - II	A	Kashgar	Kashgar	39.4518055555556	76.11025	camp	corroborated	C_QE02	Shawn Zhang	35	258	XJV DB			https://medium.com/@shawnwzhang/satellite-imagery-of-xinjiang-re-education-camp-35-%E6%96%B0%E7%96%86%E5%86%8D%E6%95%99%E8%82%B2%E9%9B%86%E4%B8%AD%E8%90%A5%E5%8D%AB%E6%98%9F%E5%9B%BE-35-a498ac4ff988	https://shahit.biz/eng/#facilities		
139	Shache - I		Shache	Kashgar	38.3650277777778	77.1198611111111	camp	corroborated		Shawn Zhang	46	117				https://medium.com/@shawnwzhang/satellite-imagery-of-xinjiang-re-education-Pre-2016 programme - detention centre-43-44-45-46-47-d7879b59a2b1			
140	Wensu - I	A	Wensu	Aksu	41.344615	80.241489	camp	corroborated	P_AQ10, C_AQ05 	Shawn Zhang	38,39	330				https://medium.com/@shawnwzhang/satellite-imagery-of-xinjiang-re-education-Pre-2016 programme - detention centre-38-%E6%96%B0%E7%96%86%E5%86%8D%E6%95%99%E8%82%B2%E9%9B%86%E4%B8%AD%E8%90%A5%E5%8D%AB%E6%98%9F%E5%9B%BE-38-f46caa13eabf			
141	Wensu - VI		Wensu	Aksu	41.266701	80.247408	camp	corroborated	C_AQ06	Shawn Zhang	38,39	334				https://medium.com/@shawnwzhang/satellite-imagery-of-xinjiang-re-education-Pre-2016 programme - detention centre-38-%E6%96%B0%E7%96%86%E5%86%8D%E6%95%99%E8%82%B2%E9%9B%86%E4%B8%AD%E8%90%A5%E5%8D%AB%E6%98%9F%E5%9B%BE-38-f46caa13eabf			
142	Shule - IV		Shule	Kashgar	39.410674	76.132959	camp	corroborated	C_QE10	Shawn Zhang	40	207				https://medium.com/@shawnwzhang/satellite-imagery-of-xinjiang-re-education-Pre-2016 programme - detention centre-40-%E6%96%B0%E7%96%86%E5%86%8D%E6%95%99%E8%82%B2%E9%9B%86%E4%B8%AD%E8%90%A5%E5%8D%AB%E6%98%9F%E5%9B%BE-40-3d7feeac7f40			
143	Bachu - II		Bachu	Kashgar	39.81887	78.518519	camp	corroborated	C_QE20	Shawn Zhang	41	182				https://medium.com/@shawnwzhang/satellite-imagery-of-xinjiang-re-education-Pre-2016 programme - detention centre-41-%E6%96%B0%E7%96%86%E5%86%8D%E6%95%99%E8%82%B2%E9%9B%86%E4%B8%AD%E8%90%A5%E5%8D%AB%E6%98%9F%E5%9B%BE41-a7ef02b072e2			
144	Artux - I		Artux	Kizilsu	39.6423888888889	75.9946944444444	camp	corroborated	C_AR01	Shawn Zhang	23	224		AP		https://apnews.com/article/china-cables-ap-top-news-international-news-china-race-and-ethnicity-4ab0b341a4ec4e648423f2ec47ea5c47			
145	Artux - II		Artux	Kizilsu	39.639799	75.995126	prison - medium security	corroborated	P_AR04	Shawn Zhang	23	13		AP		https://apnews.com/article/china-cables-ap-top-news-international-news-china-race-and-ethnicity-4ab0b341a4ec4e648423f2ec47ea5c47			
146	Shache - II		Shache	Kashgar	38.46015	77.467439	camp	corroborated	C_QE25	Shawn Zhang	49	184				https://medium.com/@shawnwzhang/satellite-imagery-of-xinjiang-re-education-Pre-2016 programme - detention centre-48-49-50-%E6%96%B0%E7%96%86%E5%86%8D%E6%95%99%E8%82%B2%E9%9B%86%E4%B8%AD%E8%90%A5%E5%8D%AB%E6%98%9F%E5%9B%BE48-49-50-154f68e50c96			
147	Shache - XII		Shache	Kashgar	38.678054	77.304839	camp	corroborated	C_QE24	Shawn Zhang	50	52				https://medium.com/@shawnwzhang/satellite-imagery-of-xinjiang-re-education-Pre-2016 programme - detention centre-48-49-50-%E6%96%B0%E7%96%86%E5%86%8D%E6%95%99%E8%82%B2%E9%9B%86%E4%B8%AD%E8%90%A5%E5%8D%AB%E6%98%9F%E5%9B%BE48-49-50-154f68e50c96			
148	Shache - III		Shache	Kashgar	38.351695	77.30574	camp	corroborated	C_QE26	Shawn Zhang	43	55				https://medium.com/@shawnwzhang/satellite-imagery-of-xinjiang-re-education-Pre-2016 programme - detention centre-43-44-45-46-47-d7879b59a2b1			
149	Shache - IV		Shache	Kashgar	38.317354	77.210579	camp	corroborated	C_QE32	Shawn Zhang	44	36				https://medium.com/@shawnwzhang/satellite-imagery-of-xinjiang-re-education-Pre-2016 programme - detention centre-43-44-45-46-47-d7879b59a2b2			
150	Shache - V		Shache	Kashgar	38.362843	77.225699	camp	corroborated	C_QE28	Shawn Zhang	45	259				https://medium.com/@shawnwzhang/satellite-imagery-of-xinjiang-re-education-Pre-2016 programme - detention centre-43-44-45-46-47-d7879b59a2b3			
151	Shache - VI	A	Shache	Kashgar	38.411947	77.144442	camp	corroborated	C_QE29	Shawn Zhang	46	156				https://medium.com/@shawnwzhang/satellite-imagery-of-xinjiang-re-education-Pre-2016 programme - detention centre-43-44-45-46-47-d7879b59a2b4			
152	Shache - VII		Shache	Kashgar	38.362651	77.120962	camp	corroborated	C_QE31	Shawn Zhang	47	8				https://medium.com/@shawnwzhang/satellite-imagery-of-xinjiang-re-education-camp-43-44-45-46-47-d7879b59a2b1			
153	Shule - V		Shule	Kashgar	39.407461	76.094108	camp	corroborated	C_QE08	Shawn Zhang	51	45				https://medium.com/@shawnwzhang/satellite-imagery-of-xinjiang-re-education-Pre-2016 programme - detention centre-51-%E6%96%B0%E7%96%86%E5%86%8D%E6%95%99%E8%82%B2%E9%9B%86%E4%B8%AD%E8%90%A5%E5%8D%AB%E6%98%9F%E5%9B%BE-51-e426f28d8c9b			
154	Usu - I		Usu	Tacheng	44.421126	84.670065	camp	corroborated	C_CH07	Shawn Zhang	52	191		Bitter Winter		https://bitterwinter.org/buildings-converted-into-Pre-2016 programme - detention centres-for-muslims/	https://medium.com/@shawnwzhang/satellite-imagery-of-xinjiang-re-education-Pre-2016 programme - detention centre-52-%E6%96%B0%E7%96%86%E5%86%8D%E6%95%99%E8%82%B2%E9%9B%86%E4%B8%AD%E8%90%A5%E5%8D%AB%E6%98%9F%E5%9B%BE-52-aa9641cc3aa8		
155	Lop - I	A	Lop	Hotan	37.101962	80.179048	camp	corroborated	P_HO08, C_HO09, C_HO10, C_HO11 	Shawn Zhang	54	189		Bitter Winter		https://bitterwinter.org/another-Pre-2016 programme - detention centre-for-uyghurs-exposed/	https://medium.com/@shawnwzhang/satellite-imagery-of-xinjiang-re-education-camp-54-%E6%96%B0%E7%96%86%E5%86%8D%E6%95%99%E8%82%B2%E9%9B%86%E4%B8%AD%E8%90%A5%E5%8D%AB%E6%98%9F%E5%9B%BE-54-ebc274163226		
156	Karakax - VII		Karakax	Hotan	37.22756	79.734815	camp	probably closed		Shawn Zhang	55		XJV DB			https://medium.com/@shawnwzhang/satellite-imagery-of-xinjiang-re-education-Pre-2016 programme - detention centre-55-%E6%96%B0%E7%96%86%E5%86%8D%E6%95%99%E8%82%B2%E9%9B%86%E4%B8%AD%E8%90%A5%E5%8D%AB%E6%98%9F%E5%9B%BE-55-4dae9f2df453	https://shahit.biz/eng/#facilities		
157	Yining City - I		Yining City	Ili	43.977428	81.13883	camp	corroborated	C_GH05	Shawn Zhang	56	81		NYT, Bitter Winter		https://www.youtube.com/watch?v=uQHuOfKgNsI	https://bitterwinter.org/exclusive-video-transformation-through-education-Pre-2016 programme - detention centre-for-uyghurs-exposed-in-xinjiang/	https://medium.com/@shawnwzhang/satellite-imagery-of-xinjiang-re-education-camp-56-%E6%96%B0%E7%96%86%E5%86%8D%E6%95%99%E8%82%B2%E9%9B%86%E4%B8%AD%E8%90%A5%E5%8D%AB%E6%98%9F%E5%9B%BE-56-bf6ed2b88f04	
158	Yining County - I	A	Yining County	Ili	44.000237	81.533377	camp	corroborated	P_GH06, C_GH10 	Shawn Zhang	57	149				https://medium.com/@shawnwzhang/satellite-imagery-of-xinjiang-re-education-Pre-2016 programme - detention centre-57-%E6%96%B0%E7%96%86%E5%86%8D%E6%95%99%E8%82%B2%E9%9B%86%E4%B8%AD%E8%90%A5%E5%8D%AB%E6%98%9F%E5%9B%BE-57-dec5b7e2b7c0			
159	Qapqal - V		Qapqal	Ili	43.839905	81.164962	camp	corroborated	C_GH14	Shawn Zhang	58	54	XJV DB	BuzzFeed News, Bitter Winter, XJ victims DB		https://www.buzzfeednews.com/article/meghara/china-new-internment-camps-xinjiang-uighurs-muslims	https://bitterwinter.org/uyghurs-being-monitored-even-while-showering/	https://shahit.biz/eng/#facilities	https://medium.com/@shawnwzhang/satellite-imagery-of-xinjiang-re-education-camp-58-%E6%96%B0%E7%96%86%E5%86%8D%E6%95%99%E8%82%B2%E9%9B%86%E4%B8%AD%E8%90%A5%E5%8D%AB%E6%98%9F%E5%9B%BE-58-9e7e0ea1a889
160	Fukang - I		Fukang	Changji	44.196194	87.874286	camp	corroborated	P_SA12, C_SA09 	Shawn Zhang	59	246				https://medium.com/@shawnwzhang/satellite-imagery-of-xinjiang-re-education-Pre-2016 programme - detention centre-59-%E6%96%B0%E7%96%86%E5%86%8D%E6%95%99%E8%82%B2%E9%9B%86%E4%B8%AD%E8%90%A5%E5%8D%AB%E6%98%9F%E5%9B%BE-59-1bd28c232be0			
161	Bachu - III		Bachu	Kashgar	39.81254	78.556033	camp	corroborated		Shawn Zhang	60	292				https://medium.com/@shawnwzhang/satellite-imagery-of-xinjiang-re-education-Pre-2016 programme - detention centre-60-%E6%96%B0%E7%96%86%E5%86%8D%E6%95%99%E8%82%B2%E9%9B%86%E4%B8%AD%E8%90%A5%E5%8D%AB%E6%98%9F%E5%9B%BE-60-cd6330e77dad			
162	Qira - I		Qira	Hotan	36.982383	80.813753	camp	corroborated	C_HO20	Shawn Zhang	61	229				https://medium.com/@shawnwzhang/satellite-imagery-of-xinjiang-re-education-Pre-2016 programme - detention centre-61-%E6%96%B0%E7%96%86%E5%86%8D%E6%95%99%E8%82%B2%E9%9B%86%E4%B8%AD%E8%90%A5%E5%8D%AB%E6%98%9F%E5%9B%BE-61-7b26d815e3e5			
163	Qira - II	A	Qira	Hotan	36.96451	80.813332	camp	corroborated	C_HO21	Shawn Zhang	62	170				https://medium.com/@shawnwzhang/satellite-imagery-of-xinjiang-re-education-Pre-2016 programme - detention centre-62-%E6%96%B0%E7%96%86%E5%86%8D%E6%95%99%E8%82%B2%E9%9B%86%E4%B8%AD%E8%90%A5%E5%8D%AB%E6%98%9F%E5%9B%BE-62-60b6e362b24c			
164	Hotan City - II	A	Hotan City	Hotan	37.130112	79.971045	camp	corroborated	C_HO03, C_HO04 	Shawn Zhang	63	40		CCTV		https://medium.com/@shawnwzhang/satellite-imagery-of-xinjiang-re-education-camp-63-%E6%96%B0%E7%96%86%E5%86%8D%E6%95%99%E8%82%B2%E9%9B%86%E4%B8%AD%E8%90%A5%E5%8D%AB%E6%98%9F%E5%9B%BE-63-5b324fa241d1	http://tv.cctv.com/2018/10/16/VIDEVvr9aq34SsDMrB6IRGnh181016.shtml		
165	Huocheng - II		Huocheng	Ili	44.058975	80.849792	camp	corroborated		Shawn Zhang	64	16		Bitter Winter		https://bitterwinter.org/Pre-2016 programme - detention centres-for-uyghurs-schools-or-jails/	https://bitterwinter.org/muslim-detainees-forced-to-perform-free-labor/	https://medium.com/@shawnwzhang/satellite-imagery-of-xinjiang-re-education-camp-64-%E6%96%B0%E7%96%86%E5%86%8D%E6%95%99%E8%82%B2%E9%9B%86%E4%B8%AD%E8%90%A5%E5%8D%AB%E6%98%9F%E5%9B%BE-64-e242c0d61119	
166	Qiemo - I		Qiemo	Bayingolin	38.104943	85.574115	camp	corroborated	P_KO19, C_KO10 	Shawn Zhang	65	37,53				https://medium.com/@shawnwzhang/satellite-imagery-of-xinjiang-re-education-Pre-2016 programme - detention centre-65-%E6%96%B0%E7%96%86%E5%86%8D%E6%95%99%E8%82%B2%E9%9B%86%E4%B8%AD%E8%90%A5%E5%8D%AB%E6%98%9F%E5%9B%BE-65-8777020022af			
167	Yutian - I		Yutian	Hotan	36.800339	81.832909	camp	corroborated		Shawn Zhang	66	311		Global Times		http://www.globaltimes.cn/content/1123910.shtml	https://medium.com/@shawnwzhang/satellite-imagery-of-xinjiang-re-education-camp-66-%E6%96%B0%E7%96%86%E5%86%8D%E6%95%99%E8%82%B2%E9%9B%86%E4%B8%AD%E8%90%A5%E5%8D%AB%E6%98%9F%E5%9B%BE-66-f617a26a02ff		
168	Yutian - II	B	Yutian	Hotan	36.835777	81.755686	camp	corroborated	P_HO16, C_HO22 	Shawn Zhang	67	119, 97		RFA		https://medium.com/@shawnwzhang/satellite-imagery-of-xinjiang-re-education-Pre-2016 programme - detention centre-67-%E6%96%B0%E7%96%86%E5%86%8D%E6%95%99%E8%82%B2%E9%9B%86%E4%B8%AD%E8%90%A5%E5%8D%AB%E6%98%9F%E5%9B%BE-67-ca481e15265b	https://www.rfa.org/uyghur/xewerler/kishilik-hoquq/keriyede-30ming-kishi-lagerda-08302018231925.html	https://medium.com/@shawnwzhang/satellite-imagery-of-xinjiang-re-education-camp-67-%E6%96%B0%E7%96%86%E5%86%8D%E6%95%99%E8%82%B2%E9%9B%86%E4%B8%AD%E8%90%A5%E5%8D%AB%E6%98%9F%E5%9B%BE-67-ca481e15265b	
169	Yengisar - I	B	Yengisar	Kashgar	38.937523	76.058796	camp	corroborated	P_QE09, C_QE14 	Shawn Zhang	68	343				https://medium.com/@shawnwzhang/satellite-imagery-of-xinjiang-re-education-Pre-2016 programme - detention centre-68-%E6%96%B0%E7%96%86%E5%86%8D%E6%95%99%E8%82%B2%E9%9B%86%E4%B8%AD%E8%90%A5%E5%8D%AB%E6%98%9F%E5%9B%BE-68-47f872ab0cff			
170	Yengisar - II		Yengisar	Kashgar	38.9608	76.156387	camp	corroborated	C_QE15	Shawn Zhang	69	163				https://medium.com/@shawnwzhang/satellite-imagery-of-xinjiang-re-education-Pre-2016 programme - detention centre-68-%E6%96%B0%E7%96%86%E5%86%8D%E6%95%99%E8%82%B2%E9%9B%86%E4%B8%AD%E8%90%A5%E5%8D%AB%E6%98%9F%E5%9B%BE-68-f5c30d1785f7			
171	Jiashi - II		Jiashi	Kashgar	39.488704	76.706074	camp	corroborated	C_QE17	Shawn Zhang	70	328				https://medium.com/@shawnwzhang/satellite-imagery-of-xinjiang-re-education-Pre-2016 programme - detention centre-70-%E6%96%B0%E7%96%86%E5%86%8D%E6%95%99%E8%82%B2%E9%9B%86%E4%B8%AD%E8%90%A5%E5%8D%AB%E6%98%9F%E5%9B%BE-70-2f9d2f9bff17			
176	Shufu - III		Shufu	Kashgar	39.370881990349	75.8623248526156	detention center	Pre-2016 programme - detention centre	P_QE03										
235	Shufu - VI		Shufu	Kashgar	39.3973765000108	75.9601939188726	prison - high security	Satellite - strong				260							
261	Shufu - VII		Shufu	Kashgar	39.3683021391562	75.8568830562674	camp	Satellite - medium				275							
262	Shufu - VIII		Shufu	Kashgar	39.3689034731738	75.8549089504324	camp	Satellite - medium				275							
284	Shule - VI		Shule	Kashgar	39.3908564973556	76.0230994181603		Pre-2016 programme	P_QE06										
347	Shule - VIII		Shule	Kashgar	39.4048021090489	76.2374536567229	camp	Satellite - medium				276							
360	Tumxuk - I		Tumxuk	XPCC	39.8763181331198	79.125633392258	detention center	Satellite - strong	P_QE25			291							
376	Tumxuk - II		Tumxuk	XPCC	39.9163478503672	79.1262854482977		Pre-2016 programme											
383	Tumxuk - III		Tumxuk	XPCC	39.7951636028804	79.078448464981	prison - medium security	Satellite - strong				319, 388							
384			Tumxuk	XPCC	39.7379970259681	79.1476084201274		Pre-2016 programme											
385			Tumxuk	XPCC	39.732250649159	79.1944719760356		Pre-2016 programme											
387			Tumxuk	XPCC	39.7673667913343	78.9451087141055		Pre-2016 programme											
388			Tumxuk	XPCC	39.7455855428629	78.9150737920484		Pre-2016 programme											
390			Tumxuk	XPCC	39.6334486809788	78.86142939414		Pre-2016 programme											
395			Bachu	Kashgar	39.6351883838371	79.0315403460371		Pre-2016 programme											
396	Bachu - IV		Bachu	Kashgar	39.8757616281162	78.6603326414806	detention center	Satellite - strong	P_QE15			206							
397	Wensu - II		Wensu	Aksu	41.0850572770799	80.3998040484291	prison - high security	corroborated	P_AQ08			30	XJV DB			https://twitter.com/shahitbiz/status/1417276265296502784?s=20 			
398	Wensu - III		Wensu	Aksu	41.0799253451204	80.3969461049852	detention center	corroborated	P_AQ07			230	XJV DB			https://shahit.biz/eng/#facilities			
404	Tumxuk - IV		Tumxuk	XPCC	39.9121633248484	79.023823349983	prison - medium security	corroborated	C_QE42			51	XJV DB			https://shahit.biz/eng/#facilities			
406			Tumxuk	XPCC	39.8981037961069	79.0279281679341		Pre-2016 programme											
413	Tumxuk - V	A	Tumxuk	XPCC	39.8512912356188	79.0229010308576	prison - high security	Satellite - strong	C_QE40			106							
414	Tumxuk - V	B	Tumxuk	XPCC	39.8538034527734	79.0233757528983	prison - high security	sub-compound	C_QE41			173							
419	Korla - II		Korla	Bayingolin	41.7086845033639	86.2790172422698	detention center	Satellite - strong	P_KO07			111							
421	Korla - III		Korla	Bayingolin	41.7106553382716	86.2851326788237	prison - medium security	Satellite - strong	P_KO06			159							
422	Korla - IV		Korla	Bayingolin	41.7167770903598	86.2837657438808	prison - high security	Satellite - strong	P_KO05			162	XJV DB			https://shahit.biz/eng/#facilities			
423	Korla - V	A	Korla	Bayingolin	41.720042292371	86.290536720368	detention center	Satellite - strong				146							
431	Artux - III		Artux	Kizilsu	39.7322929454997	75.9933540618709	prison - high security	corroborated	P_AR05			168	XJV DB			https://shahit.biz/eng/#facilities			
432	Artux - IV		Artux	Kizilsu	39.6761852744129	76.0818846323335	detention center	Satellite - strong	P_AR03			295							
434	Artux - V		Artux	Kizilsu	39.667905622156	76.0897551264998	camp	Satellite - medium	C_AR03	Shawn Zhang		67				https://medium.com/@shawnwzhang/additional-list-of-re-education-camps-in-xinjiang-bb9258ae9eb1			
446	Kashgar - VII	A	Kashgar	Kashgar	39.4298812146422	76.0553357223191	detention center	corroborated				297	XJV DB			https://shahit.biz/eng/#facilities			
447	Kashgar - VII	B	Kashgar	Kashgar	39.4298812146422	76.057299099318	detention center	sub-compound											
465	Akto - IV		Akto	Kizilsu	39.2488492790063	76.0082000732464	prison - medium security	Satellite - strong				298							
468	Akto - II		Akto	Kizilsu	39.1416536796075	75.9441292620106	detention center	Satellite - strong	P_AR07			161							
470	Akto - III	A	Akto	Kizilsu	39.116595000623	75.9238811330833	camp	Satellite - strong	C_AR06			176							
485	Bachu - IX		Bachu	Kashgar	39.7763346748295	78.5452059170998	camp	Satellite - medium	C_QE21			20							
513	Shache - VIII		Shache	Kashgar	38.9682170456942	77.4339677149035	prison - medium security	corroborated	P_QE19			356	XJV DB			https://shahit.biz/eng/#facilities			
514	Shache - IX		Shache	Kashgar	38.9948576875174	77.4459143692617		Pre-2016 programme	P_QE20			31							
533	Shache - VI	B	Shache	Kashgar	38.412926192015	77.1480475929728	detention center	sub-compound	P_QE21	Shawn Zhang	46					https://medium.com/@shawnwzhang/satellite-imagery-of-xinjiang-re-education-Pre-2016 programme - detention centre-43-44-45-46-47-d7879b59a2b5			
534	Shache - VI	C	Shache	Kashgar	38.4114698013378	77.1484827366929	prison - medium security	sub-compound		Shawn Zhang	46	19				https://medium.com/@shawnwzhang/satellite-imagery-of-xinjiang-re-education-Pre-2016 programme - detention centre-43-44-45-46-47-d7879b59a2b5			
550	Shache - X		Shache	Kashgar	38.2364008910106	77.0965534340139	camp	corroborated	C_QE33	Shawn Zhang	76	64				https://medium.com/@shawnwzhang/satellite-imagery-of-xinjiang-re-education-Pre-2016 programme - detention centre-76-8e67dc270591			
558	Toutunhe - I		Toutunhe	örÅmqi	43.8070216804843	87.297086239447	camp	Satellite - strong	C_UR04			188							
563	Saybagh - I		Saybagh	örÅmqi	43.7484133936151	87.4420881873706	prison - high security	corroborated	P_UR15			369	XJV DB			https://shahit.biz/eng/#facilities			
565	Midong - I		Midong	örÅmqi	43.9627395567556	87.7826219924253	detention center	Satellite - strong	P_UR10			320							
566	Zepu - II	A	Zepu	Kashgar	38.0786751570617	77.2173375807846	detention center	Satellite - strong				300							
570	Yecheng - IV		Yecheng	Kashgar	37.8521507386712	77.4538771508218	camp	Satellite - strong											
571	Yecheng - III		Yecheng	Kashgar	37.8463514464205	77.4428827038294	camp	Satellite - strong											
572	Yecheng - VI		Yecheng	Kashgar	37.8438453508469	77.4512955802408	camp	Satellite - medium											
574	Yecheng - I	B	Yecheng	Kashgar	37.9126326555455	77.3499727137439	detention center	sub-compound	P_QE23, C_QE36 	Shawn Zhang	4	68, 83				https://medium.com/@shawnwzhang/satellite-imagery-of-xinjiang-re-education-Pre-2016 programme - detention centre-4-%E6%96%B0%E7%96%86%E5%86%8D%E6%95%99%E8%82%B2%E9%9B%86%E4%B8%AD%E8%90%A5%E5%8D%AB%E6%98%9F%E5%9B%BE-4-ded2f9b4eb38 			
585	Hotan County - II		Hotan County	Hotan	37.0184253540847	79.802389161992	prison - medium security	Satellite - strong	P_HO03			306							
588			Gaochang	Turpan	43.1554309116573	88.8372151145006		Pre-2016 programme							Laogai handbook	https://web.archive.org/web/20120228232013/http://www.laogai.it/wp-content/uploads/2009/06/laogai-handbook.pdf			
592	Aral - I		Aral	XPCC	40.5000420987807	81.2459481094406	prison - high security	Satellite - strong	C_AQ18			48							
593	Karamay - I		Karamay	Karamay	45.5342888305602	84.7974118445679	prison - medium security	corroborated	P_QA03	Shawn Zhang	80	105		Bitter Winter		https://bitterwinter.org/massive-underground-prison/	https://medium.com/@shawnwzhang/satellite-imagery-of-xinjiang-re-education-camp-80-1be7a8d78572		
594	Karamay - II		Karamay	Karamay	45.5306348991232	84.8011776660248	detention center	corroborated	P_QA02	Shawn Zhang	80	250	XJV DB	Bitter Winter		https://bitterwinter.org/massive-underground-prison/	https://medium.com/@shawnwzhang/satellite-imagery-of-xinjiang-re-education-camp-80-1be7a8d78572	https://shahit.biz/eng/#facilities	
595	Altay - I	A	Altay	Altay	47.7359331271377	88.0546848171227	detention center	Satellite - strong	P_AL02, C_AL01 			88							
602	Yopurga - I		Yopurga	Kashgar	39.217659169842	76.845771297264	detention center	Satellite - strong	P_QE11			223							
603	Yopurga - II		Yopurga	Kashgar	39.2201777097591	76.8460287893295	camp	Satellite - medium	C_QE16			132							
604	Yopurga - III		Yopurga	Kashgar	39.2210381273101	76.76853726127		Pre-2016 programme - detention centre	P_QE10										
609	Awat - I		Awat	Aksu	40.651167752537	80.4338610441173	camp	Satellite - medium				288							
615	Aksu - II		Aksu	Aksu	41.1909536098357	80.2734334485829	prison - medium security	Satellite - strong	C_AQ03, C_AQ04 			333							
616	Wushi - I		Wushi	Aksu	41.1837205509142	79.2681924564216	detention center	corroborated	P_AQ12			71		RFA		https://www.rfa.org/english/news/uyghur/Pre-2016 programme - detention centres-09102020142042.html			
617	Barkol - III	A	Barkol	Hami	43.600060166968	92.9588891632036	detention center	Satellite - strong	P_QU05			23							
618	Yuli - I		Yuli	Bayingolin	41.3740263521813	86.3192210106279	camp	corroborated	C_KO04	Shawn Zhang	88	200				https://medium.com/@shawnwzhang/satellite-imagery-of-xinjiang-re-education-Pre-2016 programme - detention centre-88-73121efd51f3			
619	Hotan County - III		Hotan County	Hotan	37.2415740243971	79.860033692255	prison - high security	Satellite - strong	C_HO08			4							
620	Hotan County - IV		Hotan County	Hotan	37.2409835453195	79.8491546524906	prison - medium security	Satellite - strong	C_HO06	Shawn Zhang		84				https://medium.com/@shawnwzhang/additional-list-of-re-education-camps-in-xinjiang-bb9258ae9eb1			
621	Kunyu - I		Kunyu	XPCC	37.2337240309886	79.3249229669308	prison - high security	Satellite - strong				192							
622	Pishan - IV		Pishan	Hotan	37.5456309164613	78.2913680113745	camp	Satellite - strong				364							
624	Minfeng - I		Minfeng	Hotan	37.0223017030769	82.6868657449047	detention center	Satellite - strong	C_HO24			355							
628			Tumxuk	XPCC	39.9855822987817	79.4200335671921		Pre-2016 programme											
629			Tumxuk	XPCC	39.9480708706913	79.4762180214508		Pre-2016 programme											
630			Tumxuk	XPCC	39.9476185208641	79.5062779503219		Pre-2016 programme											
631			Tumxuk	XPCC	39.9751204332603	79.3433911216543		Pre-2016 programme											
632			Tumxuk	XPCC	39.9898741572683	79.3461440457592		Pre-2016 programme											
633			Tumxuk	XPCC	39.993804006557	79.3276810752016		Pre-2016 programme											
634	Tumxuk - VI		Tumxuk	XPCC	39.9348676901135	79.3821014356889	prison - medium security	Satellite - strong				135							
635			Tumxuk	XPCC	39.9470947027871	79.4157655731		Pre-2016 programme											
638			Tumxuk	XPCC	40.0688389003461	79.4715427625565		Pre-2016 programme											
639	Shufu - IV		Shufu	Kashgar	39.4721088129536	75.698182943191	prison - medium security	corroborated	P_QE05			204	XJV DB			https://shahit.biz/eng/#facilities			
640	Shufu - V		Shufu	Kashgar	39.4552306961577	75.7130706780147	camp	Satellite - medium	C_QE07			38							
641	Artux - IX		Artux	Kizilsu	39.6986625269182	76.141645681401	camp	Satellite - medium	P_AR02			294							
642	Kuqa - I		Kuqa	Aksu	41.7536525014888	83.018925250149	prison - medium security	corroborated	P_AQ19, C_AQ16 	Shawn Zhang	34	152		RFA		https://www.rfa.org/english/news/uyghur/kuchar-08092018124248.html	https://medium.com/@shawnwzhang/satellite-imagery-of-xinjiang-re-education-Pre-2016 programme - detention centre-34-%E6%96%B0%E7%96%86%E5%86%8D%E6%95%99%E8%82%B2%E9%9B%86%E4%B8%AD%E8%90%A5%E5%8D%AB%E6%98%9F%E5%9B%BE-34-7a9890946fb3		
643	Burqin - II		Burqin	Altay	47.7107265858885	86.8589799623307	camp	Satellite - medium	C_AL03			240							
644	Jinghe - I	A	Jinghe	Bortala	44.5453170778227	82.9159674123978	detention center	Satellite - strong	P_BO05			180							
645	Huyanghe - I		Huyanghe City	XPCC	44.4511606702903	84.9651788250713		Pre-2016 programme - detention centre	P_KU02			221							
646	Usu - II		Usu	Tacheng	44.3745631922069	84.7663370250004	detention center	Satellite - strong	C_CH09			281							
647	Tacheng - I	A	Tacheng	Tacheng	46.7961135818862	83.0722314396737	detention center	corroborated	P_CH03			367	XJV DB			https://shahit.biz/eng/viewentry.php?entryno=4981&fbclid=IwAR0YnvD42jjlimvYia3yuGhklT0JC_v-H5_RbG6wWfJ77Pt3XCx0vl0pPg8			
648	Shanshan - VI		Shanshan	Turpan	42.88091380273	90.1315112488512	camp	corroborated	C_TU10	Shawn Zhang	87	345				https://medium.com/@shawnwzhang/satellite-imagery-of-xinjiang-re-education-Pre-2016 programme - detention centre-87-39cdd5f3258a			
650	Bole - I		Bole	Bortala	44.8934530072774	81.9658860804486	prison - medium security	Satellite - medium	C_BO01			324							
651	Wushi - II	B	Wushi	Aksu	41.2090130532188	79.2037303130044	camp	corroborated	P_AQ11, C_AQ08 					RFA		https://www.rfa.org/english/news/uyghur/Pre-2016 programme - detention centres-09102020142042.html			
652	Bachu - VI		Bachu	Kashgar	39.6904247540559	78.0439827907185	prison - medium security	Satellite - strong				233							
653	Bachu - VII		Bachu	Kashgar	39.7177366255393	78.0677943978995	prison - medium security	Satellite - strong				253							
654	Bachu - VIII		Bachu	Kashgar	39.7405356922358	78.0111247625377	prison - medium security	Satellite - strong				252							
657	Lop - IV		Lop	Hotan	37.0365794509697	80.2601483214514	camp	Satellite - strong				255							
658	Lop - III		Lop	Hotan	37.0558941274474	80.2190804111636	detention center	Satellite - strong	P_HO09			57							
659	Xinshi - I		Xinshi	örÅmqi	43.8987128056078	87.5791637067614	prison - medium security	corroborated	P_UR01			262			Laogai handbook	https://web.archive.org/web/20120228232013/http://www.laogai.it/wp-content/uploads/2009/06/laogai-handbook.pdf			
660	Xinshi - VII		Xinshi	örÅmqi	43.8908742468095	87.5801507596789	prison - high security	Satellite - strong	P_UR07			261							
662	Dushanzi - I	A	Dushanzi	Karamay	44.3321399963139	84.8216095709889	detention center	corroborated	P_QA06	Shawn Zhang	79	175				https://medium.com/@shawnwzhang/satellite-imagery-of-xinjiang-re-education-Pre-2016 programme - detention centre-79-a4823f366ed0			
663	Kuytun - I	A	Kuytun	Ili	44.4116756123902	85.0694246731451	detention center	Satellite - strong	P_KU03, C_KU01 			386							
664	Shawan - I	A	Shawan	Tacheng	44.3457917328496	85.6309907868638	detention center	corroborated	P_CH11, C_CH04 	Shawn Zhang	83	247				https://medium.com/@shawnwzhang/satellite-imagery-of-xinjiang-re-education-Pre-2016 programme - detention centre-83-377e9453db7a			
665	Manas - I		Manas	Changji	44.329353638831	86.1601359880253	detention center	corroborated	P_SA09	Shawn Zhang	85	218				https://medium.com/@shawnwzhang/satellite-imagery-of-xinjiang-re-education-Pre-2016 programme - detention centre-85-61af926ea61a			
666	Changji - I	A	Changji	Changji	44.1027732442182	86.9965917060608	detention center	corroborated	P_SA05, C_SA03, C_SA04 	Shawn Zhang	86	46				https://medium.com/@shawnwzhang/satellite-imagery-of-xinjiang-re-education-Pre-2016 programme - detention centre-86-8137ce0b8b82			
667	Hutubi - I	A	Hutubi	Changji	44.2068571695938	86.8938591336897	camp	corroborated	P_SA06, C_SA08 	Shawn Zhang	84	108				https://medium.com/@shawnwzhang/satellite-imagery-of-xinjiang-re-education-Pre-2016 programme - detention centre-84-7643d7adc243			
668	Shihezi - I		Shihezi	Shihezi	44.2361629352083	85.969501638958		Pre-2016 programme	P_SH03			236							
669	Kalpin - I		Kalpin	Aksu	40.525010804992	79.0223963900949	camp	Satellite - strong	C_AQ12			137							
670	Xayar - I	A	Xayar	Aksu	41.2333948888174	82.8347619764854	prison - medium security	Satellite - strong	P_AQ18, C_AQ14 	Shawn Zhang		238				https://medium.com/@shawnwzhang/additional-list-of-re-education-camps-in-xinjiang-bb9258ae9eb1			
671	Baicheng - I	A	Baicheng	Aksu	41.77160029841	81.8237256274767	detention center	Satellite - strong	P_AQ15, P_AQ16, C_AQ13 			216							
672	Luntai - I	A	Luntai	Bayingolin	41.8081946268458	84.2984771598656	detention center	Satellite - strong	P_KO11, C_KO05 			73							
673	Tiemenguan - I		Tiemenguan	XPCC	41.885458359112	85.5891216200147	prison - high security	corroborated				251		BBC		https://www.bbc.co.uk/news/extra/nz0g306v8c/china-tainted-cotton			
674	Gaochang - II		Gaochang	Turpan	42.9454993463864	89.2323088275309	camp	Satellite - medium	C_TU01	Shawn Zhang	76, 77, 78	312				https://medium.com/@shawnwzhang/satellite-imagery-of-xinjiang-re-education-Pre-2016 programme - detention centre-76-77-78-226728c6c738			
675	Shanshan - I		Shanshan	Turpan	42.9708735691389	90.3883721297539	detention center	Satellite - strong	P_TU05			148							
676	Wenquan - I		Wenquan	Bortala	44.9619125792152	81.0331973233665	detention center	Satellite - strong	C_BO02			341							
677	Baijiantan - I		Baijiantan	Karamay	45.6986868219182	85.1542257498038	detention center	Satellite - strong	P_QA07, C_QA01 	Shawn Zhang		74				https://medium.com/@shawnwzhang/additional-list-of-re-education-camps-in-xinjiang-bb9258ae9eb1			
678	Fuyun - I	A	Fuyun	Altay	46.9984657011717	89.4978664759952	detention center	Satellite - strong	P_AL08, C_AL05 			77							
679	Burqin - I		Burqin	Altay	47.694574937091	86.8684553015846	detention center	corroborated	P_AL06			278	XJV DB			https://shahit.biz/eng/#facilities			
680	Habahe - I		Habahe	Altay	48.083094985894	86.4045083122792		Pre-2016 programme - detention centre	P_AL07										
681	Xinyuan - I		Xinyuan	Ili	43.4506067296637	82.7379306881202		Pre-2016 programme											
682	Xinyuan - II		Xinyuan	Ili	43.4395195485254	82.7462481378582	prison - medium security	corroborated				197	XJV DB			https://shahit.biz/eng/#facilities			
683	Xinyuan - III		Xinyuan	Ili	43.4447592816802	83.2351614568016	camp	corroborated						BBC		https://www.bbc.com/news/amp/world-asia-china-55794071?__twitter_impression=true			
684	Xinyuan - IV		Xinyuan	Ili	43.4600551525913	83.2747914861924	prison - high security	corroborated	P_GH17, C_GH21 			321	XJV DB			https://shahit.biz/eng/#facilities			
685	Nilka - I	A	Nilka	Ili	43.8163540404853	82.5153209974295	detention center	Satellite - strong	P_GH13, C_GH19 			47							
686	Changji - II		Changji	Changji	44.3112651643283	87.4383818081631	prison - high security	Satellite - strong	P_SA03, C_SA07 			80, 43							
687	Changji - III		Changji	Changji	44.3200460593824	87.4325024060024	prison - medium security	corroborated	P_SA04, C_SA06 			167	XJV DB		Laogai handbook	https://web.archive.org/web/20120228232013/http://www.laogai.it/wp-content/uploads/2009/06/laogai-handbook.pdf	https://shahit.biz/eng/#facilities		
690	Barkol - I		Barkol	Hami	43.6017996721869	93.1033543828223	camp	Satellite - strong	C_QU04			75							
691	Yizhou - VII		YIzhou	Hami	42.7787958726459	93.7995932888125	camp	Satellite - medium				127							
692	Yizhou - I	A	Yizhou	Hami	42.8628470757958	93.5174651689014	detention center	corroborated	P_QU02			339		Bitter Winter		https://bitterwinter.org/new-transformation-through-education-Pre-2016 programme - detention centres/			
693	Gaochang - III		Gaochang	Turpan	42.9818805245056	89.167022958478	detention center	Satellite - strong	P_TU01			93							
695	Hejing - I	A	Hejing	Bayingolin	42.3120693743158	86.3092017439008	camp	corroborated		Shawn Zhang	74	96				https://medium.com/@shawnwzhang/satellite-imagery-of-xinjiang-re-education-Pre-2016 programme - detention centre-74-fbb722d97f71			
696	Yanqi - I		Yanqi	Bayingolin	41.9352007530755	86.409115745304	prison - medium security	Satellite - strong	P_KO15			76							
697	Ruoqiang - I		Ruoqiang	Bayingolin	38.9889419770331	88.1780744865277	detention center	Satellite - strong				33							
698	Qira - IV		Qira	Hotan	36.9732228403555	80.8401130261764	detention center	Satellite - strong	P_HO14			310							
699	Yutian - IV		Yutian	Hotan	37.0042899376343	81.6169714729174		Pre-2016 programme							Laogai handbook	https://web.archive.org/web/20120228232013/http://www.laogai.it/wp-content/uploads/2009/06/laogai-handbook.pdf			
700	Kunyu - II		Kunyu	XPCC	37.2180981826586	79.2971305215801	detention center	Satellite - strong				305							
701	Zhaosu - I	A	Zhaosu	Ili	43.1801573879959	81.1341420009433	detention center	corroborated	P_GH19, C_GH25 	Shawn Zhang		385		BuzzFeed News		https://www.buzzfeednews.com/article/meghara/inside-xinjiang-detention-camp			
702	Gongliu - I	A	Gongliu	Ili	43.5181250286318	82.2093695556845	camp	Satellite - strong	P_GH15, C_GH20 			98							
703	Tekes - I	A	Tekes	Ili	43.1981176539719	81.8248938261887	detention center	Satellite - strong	P_GH18, C_GH23 										
704	Yining City - II	A	Yining City	Ili	43.9030540193605	81.3896863018718	camp	Satellite - strong	P_GH01, C_GH02 			249							
705	Yining City - III		Yining City	Ili	43.9401340865103	81.3423007734943	prison - medium security	corroborated	P_GH03			302	XJV DB			https://shahit.biz/eng/#facilities			
706	Toksun - I		Toksun	Turpan	42.808593244938	88.6964363542088	detention center	Satellite - strong	C_TU06			340							
707			Gaocheng	Turpan	43.1523782863508	88.855355361226		Pre-2016 programme	P_TU02			360							
708	Yumin - I		Yumin	Tacheng	46.1572581179794	83.0258503488641	detention center	Satellite - strong	P_CH07			280							
709	Fuhai - I		Fuhai	Altay	47.1002783677763	87.5511495718703	camp	Satellite - medium				371							
712			Hutubi	Changji	44.6209069376639	86.7697307261758		Pre-2016 programme											
714	Fuhai - II		Fuhai	Altay	47.1090854243811	87.5512354025587	detention center	Satellite - strong				370							
715	Hoboksar - I		Hoboksar	Tacheng	46.7920071516285	85.7058036951413	detention center	Satellite - strong	P_CH10			351							
717	Toli - I	A	Toli	Tacheng	45.9204384134169	83.6018268172522	detention center	Satellite - strong	P_CH08			374							
718	Shuanghe - I		Shuanghe	XPCC	44.8543216643947	82.3452228326807	detention center	Satellite - strong	P_BO02			375							
719	Yuli - II		Yuli	Bayingolin	41.3571607004282	86.246204968035	detention center	Satellite - strong	P_KO09			164							
720	Pishan - I	A	Pishan	Hotan	37.5675689637688	78.2413141189434	camp	Satellite - strong	C_HO19			66							
721	Hotan County - V		Hotan County	Hotan	37.235214906791	79.8375178975656	camp	Satellite - strong	C_HO07	Shawn Zhang		205				https://medium.com/@shawnwzhang/additional-list-of-re-education-camps-in-xinjiang-bb9258ae9eb1			
722	Hotan County - VI		Hotan County	Hotan	37.2877731071016	79.8312556786681	camp	Satellite - strong				7							
723	Kalpin - II		Kalpin	Aksu	40.4944683732289	79.0732709649658	detention center	Satellite - strong				220							
724	Shule - I	A	Shule	Kashgar	39.3599552857925	76.0501351309418	detention center	sub-compound				235							
725	Shule - I	C	Shule	Kashgar	39.3562709741478	76.0531821203828	camp	sub-compound				193							
726	Karakax - VIII	A	Karakax	Hotan	37.1100420581024	79.6392575340035	detention center	corroborated				86, 322	XJV DB			https://shahit.biz/eng/#facilities			
729	Jiashi - I	B	Jiashi	Kashgar	39.5380629113066	76.7161676321051	detention center	sub-compound				115							
731	Jiashi - I	C	Jiashi	Kashgar	39.5395097602217	76.7155399951956	prison - medium security	sub-compound											
734	Xinhe - I		Xinhe	Aksu	41.5608251202511	82.6015853381954	detention center	Satellite - strong	P_AQ17			286							
735	Yecheng - V		Yecheng	Kashgar	37.8452723252612	77.4466960860784		Pre-2016 programme											
737	Emin - I		Emin	Tacheng	46.5375960945525	83.634405459944		Pre-2016 programme - detention centre	P_CH05										
738	Jeminay - I	A	Jeminay	Altay	47.4370356208577	85.860511576666	detention center	Satellite - strong	P_AL10			373							
739	Mori - I	A	Mori	Changji	43.8200383648198	90.2829942603767	detention center	Satellite - strong	P_SA15			353							
740	Makit - II		Makit	Kashgar	38.9120410835271	77.6480986634731		Pre-2016 programme - detention centre	P_QE16										
741	Tacheng - II		Tacheng	Tacheng	46.7439842957996	82.9980128770015		Pre-2016 programme - detention centre	P_CH02				XJV DB	BuzzFeed News		https://shahit.biz/eng/#facilities			
742	Tacheng - III		Tacheng	Tacheng	46.7178696437447	82.9541076591137	camp	corroborated	C_CH01			25	XJV DB	New Yorker, BuzzFeed News		https://www.newyorker.com/news/a-reporter-at-large/china-xinjiang-prison-state-uighur-detention-camps-prisoner-testimony	https://shahit.biz/eng/viewentry.php?entryno=4981&fbclid=IwAR0YnvD42jjlimvYia3yuGhklT0JC_v-H5_RbG6wWfJ77Pt3XCx0vl0pPg8		
743	Yumin - II		Yumin	Tacheng	46.2029422555757	82.9762146289787		Pre-2016 programme - detention centre	P_CH06										
745	Bole - II		Bole	Bortala	44.8764472604011	82.0632415757798		Pre-2016 programme - detention centre	P_BO01										
746	Bole - III		Bole	Bortala	44.8754089654735	82.062190149846	detention center	closed											
748			Huyanghe	XPCC	44.723534381403	85.0135015623106		Pre-2016 programme											
749	Nilka - II		Nilka	Ili	43.7653072242881	82.5948528851014	camp	corroborated						BuzzFeed News					
750	Nilka - III		Nilka	Ili	43.798098601928	82.4877948438421	camp	corroborated				315	XJV DB	BuzzFeed News, Bitter Winter		https://bitterwinter.org/school-converted-into-a-transformation-through-education-Pre-2016 programme - detention centre/	https://shahit.biz/eng/#facilities		
751	Nilka - IV		Nilka	Ili	43.763685651786	82.6083895322167	camp	corroborated						BuzzFeed News		https://www.buzzfeednews.com/article/alison_killing/xinjiang-camps-china-factories-forced-labor			
752	Nilka - V		Nilka	Ili	43.7898962309258	82.4901876601141	camp	corroborated						BuzzFeed News					
753	Nilka - VI		Nilka	Ili	43.7839732685473	82.4849855072319		Pre-2016 programme - detention centre	P_GH12					BuzzFeed News					
755	Qinghe - I		Qinghe	Altay	46.6674335578333	90.3759408109117		Pre-2016 programme - detention centre	P_AL09										
756	Altay - II		Altay	Altay	47.8169042578826	88.1197960285137	detention center	closed	P_AL01										
757	Karamay - III		Karamay	Karamay	45.6137033586	84.8463410333931	detention center	closed	P_QA01				XJV DB			https://shahit.biz/eng/#facilities			
758	Wuqia - I	A	Wuqia	Kizilsu	39.7250903038196	75.261732468875	detention center	Satellite - strong	P_AR06										
759	Barkol - II		Barkol	Hami	43.5967437773286	93.0084425907311		Pre-2016 programme - detention centre	P_QU04										
760	Gaochang - IV		Gaochang	Turpan	42.9504266746593	89.2401515868036	camp	Satellite - medium	C_TU02	Shawn Zhang	76, 77, 78	63				https://medium.com/@shawnwzhang/satellite-imagery-of-xinjiang-re-education-Pre-2016 programme - detention centre-76-77-78-226728c6c738			
761	Gaochang - V		Gaochang	Turpan	42.9536452332297	89.2387997534601	camp	Satellite - medium	C_TU03	Shawn Zhang	76, 77, 78	326				https://medium.com/@shawnwzhang/satellite-imagery-of-xinjiang-re-education-Pre-2016 programme - detention centre-76-77-78-226728c6c738			
762	Gaochang - VI		Gaochang	Turpan	42.9549756926161	89.2430215504495	prison - medium security	Satellite - medium	C_TU05			121				https://medium.com/@shawnwzhang/satellite-imagery-of-xinjiang-re-education-Pre-2016 programme - detention centre-76-77-78-226728c6c738			
763	Shanshan - II		Shanshan	Turpan	42.89268485103	90.1680386104603	camp	Satellite - medium	C_TU07			78							
764	Xayar - II		Xayar	Aksu	41.1927572389567	82.7382162783284	camp	corroborated		Shawn Zhang	72	213				https://medium.com/@shawnwzhang/satellite-imagery-of-xinjiang-re-education-Pre-2016 programme - detention centre-72-d0d8cda0684a			
765	Makit - III		Makit	Kashgar	38.8810901833267	77.6570549466736	camp	corroborated		Shawn Zhang	75	174				https://medium.com/@shawnwzhang/satellite-imagery-of-xinjiang-re-education-Pre-2016 programme - detention centre-75-74844695702d			
766	Karakax - III		Karakax	Hotan	37.259509207733	79.7474769750833	camp	corroborated	C_HO15	Shawn Zhang		199	XJV DB		Zenz, Karakax list	https://www.jpolrisk.com/karakax/	https://shahit.biz/eng/#facilities		
767	Yining City - IV		Yining City	Ili	43.8703311327011	81.3840865179408	camp	Satellite - medium		Shawn Zhang						https://medium.com/@shawnwzhang/additional-list-of-re-education-camps-in-xinjiang-bb9258ae9eb1			
768	Yining County - II		Yining County	Ili	43.98110467178	81.5363351687274	camp	Satellite - medium	P_GH07	Shawn Zhang		15				https://medium.com/@shawnwzhang/additional-list-of-re-education-camps-in-xinjiang-bb9258ae9eb1			
769	Zhaosu - II		Zhaosu	Ili	43.1498255525974	81.1091361243309	camp	probably closed	C_GH24	Shawn Zhang		241		BuzzFeed News		https://www.buzzfeednews.com/article/meghara/inside-xinjiang-detention-camp			
772	Yumin - III		Yumin	Tacheng	46.214942837437	82.9901921988332	camp	Satellite - medium	C_CH03			172							
773	Qapqal - I		Qapqal	Ili	43.8066905673141	81.156115540759	detention center	Satellite - strong	P_GH08			209							
774	Qapqal - II		Qapqal	Ili	43.8158066486381	81.1564786517495	camp	Satellite - medium	C_GH12			12							
775	Jimsar - I	A	Jimsar	Changji	43.9862438046377	89.1417600239944	detention center	Satellite - strong	P_SA13, C_SA10 			59	XJV DB			https://shahit.biz/eng/#facilities			
776	Qitai - I		Qitai	Changji	43.9918884623083	89.5859633657393		Pre-2016 programme - detention centre	P_SA14										
777	Bohu - I		Bohu	Bayingolin	41.9759950206469	86.6096714806994	camp	Satellite - medium	C_KO06			190, 202							
778	Bohu - II		Bohu	Bayingolin	41.9808517717662	86.6251618693586	detention center	Satellite - strong	P_KO12			284							
779	Akqi - I	A	Akqi	Kizilsu	40.9332337145204	78.4434011042268	detention center	Satellite - strong	P_AR08			290							
780	Awat - II	A	Awat	Aksu	40.6427158880091	80.3683844962516	detention center	Satellite - strong	P_AQ13										
781	Taxkorgan - I	A	Taxkorgan	Kashgar	37.7799480283871	75.2285926304	detention center	Satellite - strong	P_QE24			296							
782	Fukang - II		Fukang	Changji	44.1964831807257	87.8796155201745	detention center	Satellite - strong	P_SA11			225							
783	Bole - IV		Bole	Bortala	44.8514108908604	82.0681532694238	camp	probably closed						Bitter Winter		https://bitterwinter.org/training-centre-converted-into-Pre-2016 programme - detention centre-for-muslims/			
784	Yizhou - II		Yizhou	Hami	42.8560333834522	93.4218197780065	camp	Satellite - medium	C_QU02			245							
785	Shihezi - II		Shihezi	Shihezi	44.3924715299707	85.9785514658484		Pre-2016 programme											
786	Zhaosu - III		Zhaosu	Ili	43.1513348579147	81.1288130369825	camp	probably closed						BuzzFeed News		https://www.buzzfeednews.com/article/meghara/inside-xinjiang-detention-camp			
787	Zhaosu - IV		Zhaosu	Ili	43.1615332005713	81.1292851057691	camp	probably closed						BuzzFeed News		https://www.buzzfeednews.com/article/meghara/inside-xinjiang-detention-camp			
788	Shuimogou - I		Shuimogou	örÅmqi	43.8253865188035	87.6293340513415	detention center	corroborated	P_UR11			271	XJV DB			https://shahit.biz/eng/#facilities			
789	Bachu - V		Bachu	Kashgar	39.7845237833216	78.5620194854702	detention center	closed	P_QE14			293							
790	Minfeng - II		Minfeng	Hotan	37.0646258611663	82.6830613391378		Pre-2016 programme - detention centre	P_HO18										
791	Yutian - III		Yutian	Hotan	36.8499059829274	81.673232192672		Pre-2016 programme - detention centre	P_HO15										
792	Qira - III		Qira	Hotan	37.0013390235635	80.8072908712763		Pre-2016 programme - detention centre	P_HO13										
793	Lop - II		Lop	Hotan	37.0777962558473	80.1892584408657	detention center	Satellite - strong	P_HO06			309							
794	Karakax - II	A	Karakax	Hotan	37.2770585145781	79.745781775084	detention center	corroborated	P_HO10			307	XJV DB			https://shahit.biz/eng/#facilities			
795	Hoxud - I		Hoxud	Bayingolin	42.2584379942105	86.8643395915178		Pre-2016 programme - detention centre	P_KO17										
796	Wensu - IV		Wensu	Aksu	41.0772783105427	80.3986928924513	detention center	corroborated	P_AQ06				XJV DB			https://twitter.com/shahitbiz/status/1417276265296502784?s=20 			
797	Wensu - V		Wensu	Aksu	41.0826602248381	80.4069806538355	prison - medium security	corroborated	P_AQ09			217	XJV DB			https://twitter.com/shahitbiz/status/1417276265296502784?s=20 			
798	Tiemenguan - II		Tiemenguan	XPCC	41.8892784642859	85.5900882785826	prison - medium security	corroborated				126		BBC		https://www.bbc.co.uk/news/extra/nz0g306v8c/china-tainted-cotton			
799	Tiemenguan - III		Tiemenguan	XPCC	41.8875681719248	85.5976199214964	prison - medium security	corroborated				318		BBC		https://www.bbc.co.uk/news/extra/nz0g306v8c/china-tainted-cotton			
800	Hoboksar - II		Hoboksar	Tacheng	46.7937259675872	85.7061041025509	camp	Satellite - medium				352							
801	Fuhai - III		Fuhai	Altay	47.1134432198111	87.4997573855184	detention center	closed	P_AL05										
802	Shanshan - III		Shanshan	Turpan	42.8866356503424	90.2284429777572	detention center	Satellite - strong	P_TU04										
803	Kalpin - III		Kalpin	Aksu	40.4994008819163	79.0455286083433		Pre-2016 programme - detention centre	P_AQ14										
804	Korgas - I		Korgas	Ili	44.1743196499605	80.646106587035	detention center	Satellite - strong											
805	Wenquan - II		Wenquan	Bortala	44.9690863781293	81.0306678310496		Pre-2016 programme - detention centre	P_BO03										
806	Jiashi - III		Jiashi	Kashgar	39.4914333482314	76.7459520800849		Pre-2016 programme - detention centre	P_QE12										
809	Xinshi - II		Xinshi	örÅmqi	43.9360598186145	87.5815370077267	prison - medium security	corroborated	P_UR02			91	XJV DB		Laogai handbook	https://web.archive.org/web/20120228232013/http://www.laogai.it/wp-content/uploads/2009/06/laogai-handbook.pdf	https://shahit.biz/eng/#facilities		
810	Xinshi - III		Xinshi	örÅmqi	43.9461069915462	87.5740918324745	prison - medium security	corroborated	P_UR03				XJVDB			https://shahit.biz/eng/#facilities			
811	Xinshi - IV		Xinshi	örÅmqi	43.9267187153692	87.5839245114087	prison - medium security	Satellite - strong	P_UR04			267							
812	Xinshi - V		Xinshi	örÅmqi	43.9273340088822	87.5890001193274	prison - medium security	Satellite - strong	P_UR05			268							
813	Xinshi - VI		Xinshi	örÅmqi	43.9308737063066	87.5901504064576	prison - medium security	Satellite - strong	P_UR06			269							
814	Xinshi - XIII	A	Xinshi	örÅmqi	43.9411420313447	87.5783411842252	prison - medium security	corroborated	P_UR08			265	XJV DB		Laogai handbook	https://web.archive.org/web/20120228232013/http://www.laogai.it/wp-content/uploads/2009/06/laogai-handbook.pdf	https://shahit.biz/eng/#facilities		
815	Xinshi - VIII		Xinshi	örÅmqi	43.908570523316	87.5302491394228		Pre-2016 programme - detention centre	P_UR09										
816	Saybagh - II		Saybagh	örÅmqi	43.7965584701719	87.5601254389309	detention center	corroborated	P_UR12			272			Laogai handbook	https://web.archive.org/web/20120228232013/http://www.laogai.it/wp-content/uploads/2009/06/laogai-handbook.pdf			
817	Tianshan - I		Tianshan	örÅmqi	43.7473936239282	87.6464273115899	detention center	corroborated	P_UR13			274	XJV DB				https://shahit.biz/eng/#facilities		
818			Saybagh	örÅmqi	43.7655387251108	87.504610341496		Pre-2016 programme	P_UR14										
819	Urumqi County - I		Urumqi County	örÅmqi	43.62192040813	87.5840258312875	prison - medium security	Satellite - strong	P_UR16			273							
820	Toutunhe - II		Toutunhe	örÅmqi	43.9560121547342	87.3177600056734		Pre-2016 programme - detention centre	P_UR17										
821			Urumqi County	örÅmqi	43.7594318440635	87.5680865583629		Pre-2016 programme	P_UR18										
822	Toutunhe - V		Toutunhe	örÅmqi	43.8666247298704	87.4356298216867		Pre-2016 programme - detention centre	P_UR19										
823	Toutunhe - III		Toutunhe	örÅmqi	43.883589656353	87.39359797114	detention center	Satellite - strong	P_UR20			282							
824	Midong - II		Midong	örÅmqi	43.9651692520562	87.6731505876499		Pre-2016 programme - detention centre	P_UR21										
825	Xinshi - X		Xinshi	örÅmqi	44.0258379738487	87.4323834616873	camp	Satellite - medium	P_UR22										
826	Kashgar - III		Kashgar	Kashgar	39.4549395065734	75.9667146835398		Pre-2016 programme	P_QE01										
827	Yengisar - III		Yengisar	Kashgar	38.9373101815992	76.1706918057359	detention center	Satellite - strong	P_QE08			299							
828			Makit	Kashgar	38.8794029177188	77.5610773990866		Pre-2016 programme	P_QE18										
829	Zepu - III		Zepu	Kashgar	38.1978848539264	77.2604963567841		Pre-2016 programme	P_QE22										
830	Artux - VI		Artux	Kizilsu	39.7010400316131	76.1803285454683		Pre-2016 programme - detention centre	P_AR01										
831	Hotan City - III		Hotan City	Hotan	37.1060170864388	79.936183136437		Pre-2016 programme - detention centre	P_HO01										
832	Hotan City - IV		Hotan City	Hotan	37.185739695739	79.9260017765268	detention center	Satellite - strong	P_HO05										
834	Pishan - II	A	Pishan	Hotan	37.5823085231945	78.2848446257574	detention center	Satellite - strong	P_HO12			304							
835	Minfeng - III		Minfeng	Hotan	37.0636002512216	82.6794453027141		Pre-2016 programme	P_HO17										
836			Aksu	Aksu	41.1529580093837	80.221024388977		Pre-2016 programme	P_AQ01										
837			Aksu	Aksu	41.1548250881419	80.2203645655594		Pre-2016 programme	P_AQ02										
838			Aksu	Aksu	41.1495624270377	80.2150078160899		Pre-2016 programme	P_AQ03										
839	Aksu - V		Aksu	Aksu	41.1899195133176	80.2531656631553		Pre-2016 programme - detention centre	P_AQ04										
840	Aksu - III		Aksu	Aksu	41.0091430769315	80.4224993202653	prison - medium security	Satellite - strong	P_AQ05			289							
841	Korla - VII		Korla	Bayingolin	41.7746075074759	86.1174940054204		Pre-2016 programme - detention centre	P_KO01										
842	Korla - VI		Korla	Bayingolin	41.7749824986994	86.106498286641	camp	Satellite - strong	P_KO02										
843	Tiemenguan - IV		Tiemenguan	XPCC	41.7964045304384	85.8928481365747	prison - medium security	Satellite - strong	P_KO03, C_KO02 			1							
844			Tiemenguan	XPCC	41.764177429458	85.9110091262203		Pre-2016 programme	P_KO04										
845	Luntai - II		Luntai	Bayingolin	41.7754602771817	84.255187254876		Pre-2016 programme - detention centre	P_KO10										
846	Yanqi - II	A	Yanqi	Bayingolin	42.0486591891039	86.5478580907336	detention center	Satellite - strong	P_KO13			283							
847			Yanqi	Bayingolin	41.9438321423181	86.4203375434411		Pre-2016 programme	P_KO14										
848	Hejing - II		Hejing	Bayingolin	42.3136541881837	86.4037326388893		Pre-2016 programme - detention centre	P_KO16										
849	Qiemo - II		Qiemo	Bayingolin	38.1374395786854	85.5232723333763		Pre-2016 programme - detention centre	P_KO18										
850	Ruoqiang - II		Ruoqiang	Bayingolin	39.0206456998527	88.1606837952143		Pre-2016 programme - detention centre	P_KO20										
851	Toksun - II		Toksun	Turpan	42.7828339701859	88.6417436851045		Pre-2016 programme - detention centre	P_TU03										
852	Yizhou - III		Yizhou	Hami	42.8240065027058	93.5323346359179		Pre-2016 programme	P_QU01										
853	Yizhou - IV		Yizhou	Hami	42.9177669061532	93.4151294439547	detention center	Satellite - strong	P_QU03			379							
854	Yiwu - II	A	Yiwu	Hami	43.2312580922307	94.6611154793805	camp	Satellite - strong				332							
855	Yiwu - I		Yiwu	Hami	43.2510619922021	94.688757328211	detention center	closed	P_QU06										
856	Yining City - V		Yining City	Ili	43.9217881500486	81.3405509776198	prison - medium security	Satellite - strong	P_GH02			303							
857			Yining City	Ili	43.9596787922667	81.2973796461505		Pre-2016 programme	P_GH04										
858	Yining County - III		Yining County	Ili	43.9731734734505	81.523397278062		Pre-2016 programme - detention centre	P_GH05										
859	Kokdala - I		Kokdala	XPCC	44.133529458558	80.7724976123497		Pre-2016 programme - detention centre	P_GH09										
860	Kokdala - II		Kokdala	XPCC	43.9725188805602	81.0017873749144	detention center	Satellite - strong	P_GH10			377							
861	Huocheng - III		Huocheng	Ili	44.0462757285578	80.9098393933976	detention center	corroborated	P_GH11			366	XJV DB			https://shahit.biz/eng/#facilities			
862	Gongliu - II		Gongliu	Ili	43.4839656928272	82.2335772123601	detention center	closed	P_GH14										
863	Xinyuan - V		Xinyuan	Ili	43.4289804293586	83.2524746659948		Pre-2016 programme - detention centre	P_GH16										
864			Zhaosu	Ili	43.0178876088416	80.9524342560088		Pre-2016 programme	P_GH20										
865			Zhaosu	Ili	43.0175167035835	80.9537431740081		Pre-2016 programme	P_GH21										
866	Jinghe - II		JInghe	Bortala	44.5982764539752	82.8890354466683	detention center	closed	P_BO04										
867			Tacheng	Tacheng	46.7314176176648	82.9089340789197		Pre-2016 programme	P_CH01										
868			Emin	Tacheng	46.5112114107397	83.6039275911401		Pre-2016 programme	P_CH04										
869			Toli	Tacheng	45.9279675885635	83.6019407024177		Pre-2016 programme	P_CH09										
870			Shawan	Tacheng	44.5688350073929	85.5502516893524		Pre-2016 programme	P_CH12										
871	Usu - III		Usu	Tacheng	44.422938852711	84.6645799842915		Pre-2016 programme - detention centre	P_CH13										
872	Usu - IV		Usu	Tacheng	44.4299238077034	84.7358204700088	prison - medium security	corroborated	P_CH14			368	XJV DB			https://shahit.biz/eng/#facilities			
873			Huyanghe	XPCC	44.9812059591578	84.5070455201737		Pre-2016 programme	P_CH15										
874	Beitun - I		Beitun	XPCC	47.3567115691395	87.8214583255205		Pre-2016 programme - detention centre	P_AL03			279							
875	Beitun - II		Beitun	XPCC	47.3283588670399	87.7856738588708	detention center	Satellite - strong	P_AL04, C_AL02 			181							
876	Changji - IV		Changji	Changji	44.0285478839482	87.2195466623489		Pre-2016 programme - detention centre	P_SA01										
877	Changji - V		Changji	Changji	44.1748756770283	87.1979397666281	prison - medium security	Satellite - strong	P_SA02, C_SA05 			179							
878	z		Manas	Changji	44.5285783852579	86.6478436286655		Pre-2016 programme	P_SA07										
879	Manas - II		Manas	Changji	44.3116736804052	86.2116901640827		Pre-2016 programme - detention centre	P_SA08										
880	Fukang - III		Fukang	Changji	44.1640980999694	87.9529494414291		Pre-2016 programme - detention centre	P_SA10			145							
881			Baijiantan	Karamay	45.6929652685275	85.130104758625		Pre-2016 programme	P_QA04										
882	Dushanzi - II		Dushanzi	Karamay	44.3179594152283	84.8897048657626	detention center	closed	P_QA05										
883	Kuytun - II		Kuytun	Ili	44.4174545189653	84.7919609421042	prison - high security	corroborated	P_KU01				XJVDB		Laogai handbook	https://web.archive.org/web/20120228232013/http://www.laogai.it/wp-content/uploads/2009/06/laogai-handbook.pdf	https://shahit.biz/eng/#facilities		
884			Shihezi	Shihezi	44.2467365939553	85.9505888016289		Pre-2016 programme	P_SH01										
885	Shiheze - III		Shihezi	XPCC	44.248856732481	85.9518226177757	prison - medium security	Satellite - strong	P_SH02										
886	Shihezi - IV	A	Shihezi	XPCC	44.2440040936948	85.95758890903	detention center	Satellite - strong	P_SH04			2							
887	Shihezi - V		Shihezi	Shihezi	44.3165734093542	86.0309422328909		Pre-2016 programme - detention centre	P_SH05										
888	Shihezi - VI		Shihezi	Shihezi	44.2822453449213	86.0228971721073		Pre-2016 programme	P_SH06										
889	Wujiaqu - I		Wujiaqu	XPCC	44.1768052234769	87.5156995231084	detention center	corroborated	P_WU01				XJV DB			https://shahit.biz/eng/#facilities			
890	Wujiaqu - II		Wujiaqu		44.1737052608099	87.514190728385	camp	Satellite - medium	P_WU02										
891	Saybagh - III		Saybagh	örÅmqi	43.7322563134374	87.5427455609075	camp	Satellite - strong	C_UR01			100							
892	Xinshi - IX		Xinshi	örÅmqi	43.9980216707854	87.5169755484301	camp	corroborated	C_UR02			70		WSJ		https://www.youtube.com/watch?v=6sUEek-u14w			
893	Toutunhe - IV		Toutunhe	örÅmqi	43.9613477652417	87.3943153002568	camp	Satellite - medium	C_UR03			346							
894	Shule - VII		Shule	Kashgar	39.4074554126466	76.0967327272261	camp	Satellite - medium	C_QE09			335							
895	Shache - XI		Shache	Kashgar	38.4156986000692	77.1505541290522	camp	Satellite - medium	C_QE30			116							
896	Zepu - IV		Zepu	Kashgar	38.1736312588424	77.2743263074744	camp	Satellite - medium	C_QE35			131							
898	Artux - VII		Artux	Kizilsu	39.6668725333529	76.0551216688445	camp	Satellite - medium	C_AR02										
899	Artux - VIII		Artux	Kizilsu	39.7025373476848	76.1757534152078	camp	Satellite - medium	C_AR04			153							
901	Akto - V		Akto	Kizilsu	39.1564715687164	75.9372406825352	camp	Satellite - medium	C_AR09			323							
902	Akto - VI		Akto	Kizilsu	39.247323473888	76.0153907869219	camp	Satellite - medium	C_AR10			198							
903	Hotan City - V		Hotan City	Hotan	37.0718136627567	79.9007522095558	camp	Satellite - medium	C_HO02			338							
904	Karakax - IX		Karakax	Hotan	37.2939224860574	79.6330657902058	camp	probably closed	C_HO16			11							
905	Karakax - XI		Karakax	Hotan	37.3221688341206	79.5570662380809	camp	probably closed	C_HO17										
907	Yutian - V		Yutian	Hotan	36.8469205204317	81.507112845963	camp	Satellite - medium	C_HO23			107							
908	Wushi - III		Wushi	Aksu	41.2827446245454	79.3287708650432	camp	Satellite - medium	C_AQ07			122							
909	Awat - III		Awat	Aksu	40.670149992539	80.3512914640709	camp	Satellite - medium	C_AQ09			316							
910	Awat - IV		Awat	Aksu	40.6468984716451	80.354198359747	camp	Satellite - medium	C_AQ10			61							
911	Aral - II		Aral	XPCC	40.6412680921133	81.502142422565	prison - medium security	Satellite - strong	C_AQ17			234							
912	Aral - III		Aral	XPCC	40.5646857023558	81.2362735373208	prison - medium security	Satellite - strong	C_AQ19			244							
913	Korla - VIII		Korla	Bayingolin	41.7363440084517	86.1359739818011	camp	Satellite - medium	C_KO03			171							
914	Yanqi - III		Yanqi	Bayingolin	42.0584711498764	86.5536705140474	camp	Satellite - medium	C_KO07			155							
915	Hejing - III		Hejing	Bayingolin	42.3348526579485	86.338532852095	camp	Satellite - medium	C_KO08			327							
916	Hoxud - III		Hoxud	Bayingolin	42.2936678294881	86.880143567407	camp	Satellite - medium	C_KO09			101							
917	Qiemo - IV		Qiemo	Bayingolin	38.1453450746574	85.5236700635709	camp	Satellite - medium	C_KO11			24							
918	Shanshan - IV		Shanshan	Turpan	42.8601590190634	90.2221329182212	camp	Satellite - medium	C_TU08			248							
919	Shanshan - V		Shanshan	Turpan	42.8768025122899	90.2370377776599	camp	Satellite - medium	C_TU09			237							
920	Yizhou - V		Yizhou	Hami	42.8558510554351	93.480517844608	prison - medium security	Satellite - strong	C_QU03			28							
921	Yining City - VI		Yining City	Ili	43.8985382396824	81.3059165667995	camp	Satellite - medium	C_GH01			165							
922	Yining City - IX		Yining City	Ili	43.9091403624116	81.3200615266974	camp	closed	C_GH03			79		Bitter Winter		https://bitterwinter.org/hospitals-turned-into-internment-Pre-2016 programme - detention centres/			
923	Yining City - VII		Yining City	Ili	43.9633174072712	81.3109848157437	prison - medium security	corroborated	C_GH04			10	XJV DB		Laogai handbook	https://web.archive.org/web/20120228232013/http://www.laogai.it/wp-content/uploads/2009/06/laogai-handbook.pdf	https://shahit.biz/eng/#facilities		
924	Yining County - IV		Yining County	Ili	43.9560472074551	81.4775878857528	camp	Satellite - medium	C_GH06			314							
925	Yining County - IX		Yining County	Ili	43.9755648784834	81.5012427803509	camp	Satellite - medium	C_GH08			5							
926	Yining County - V		Yining County	Ili	43.9781896196006	81.4966057955049	camp	corroborated	C_GH09	Shawn Zhang	24	39				https://medium.com/@shawnwzhang/satellite-imagery-of-xinjiang-re-education-Pre-2016 programme - detention centre-24-%E6%96%B0%E7%96%86%E5%86%8D%E6%95%99%E8%82%B2%E9%9B%86%E4%B8%AD%E8%90%A5%E5%8D%AB%E6%98%9F%E5%9B%BE-24-3f39057838fe			
927	Yining County - VI		Yining County	Ili	43.9790819616353	81.5309707506976	camp	Satellite - medium	C_GH11			143							
928	Qapqal - III		Qapqal	Ili	43.8375300824889	81.1298396037087	camp	Satellite - medium	C_GH13			103							
929	Qapqal - IV		Qapqal	Ili	43.8277740704372	81.1953078937211	camp	Satellite - medium	C_GH15			95							
930	Huocheng - IV		Huocheng	Ili	44.0630809824322	80.8808394846645	camp	Satellite - medium	C_GH17			34							
931	Huocheng - V		Huocheng	Ili	44.18636914829	80.7550469214764	camp	Satellite - medium	C_GH18			92							
932	Tekes - II		Tekes	Ili	43.2340326916423	81.8379022534951	camp	Satellite - medium	C_GH22			85							
933	Emin - III		Emin	Tacheng	46.5357685331452	83.6556725791179	camp	Satellite - medium	C_CH02			313							
934	Shawan - II		Shawan	Tacheng	44.3303187363367	85.5996279418817	camp	Satellite - medium	C_CH05			344							
935	Usu - V		Usu	Tacheng	44.4251352525188	84.6464140166317	camp	Satellite - medium	C_CH06			349							
936	Usu - VI		Usu	Tacheng	44.4317471073778	84.6686012078363	camp	corroborated	C_CH08			130		Bitter Winter		https://bitterwinter.org/buildings-converted-into-Pre-2016 programme - detention centres-for-muslims/			
937	Usu - VII		Usu	Tacheng	44.4478092422212	84.7263312324518	prison - medium security	Satellite - medium	C_CH10			219							
938	Habahe - II		Habahe	Altay	48.0212789251968	86.4168676048912	camp	Satellite - medium	C_AL04			158							
939	Changji - VI		Changji	Changji	44.0793327965227	87.3995366768399	camp	Satellite - medium	C_SA01			42							
940	Changji - VII		Changji	Changji	44.0837510188854	87.307039475384	camp	Satellite - medium	C_SA02			325							
941	Qitai - II		Qitai	Changji	44.0082658149638	89.486974698116	detention center	Satellite - strong	C_SA11			120							
942	Mori - II		Mori	Changji	43.8118825994955	90.2806044713558	camp	Satellite - medium	C_SA12			9							
943	Wujiaqu - III		Wujiaqu	XPCC	44.1849756707971	87.562747856374	camp	Satellite - medium	C_WU01			254							
944	Xinshi - XI		Xinshi	örÅmqi	43.8967027527919	87.5769750242052	detention center	corroborated	P_UR01			264	XJV DB			https://shahit.biz/eng/#facilities			
945	Minfeng - IV		Minfeng	Hotan	37.0224387576027	82.6850633004467	camp	Satellite - medium	C_HO24			114							
946	Kuqa - III	B	Kuqa	Aksu	41.7519860972262	83.0215187347558	detention center	corroborated	P_AQ19, C_AQ16 	Shawn Zhang	34					https://medium.com/@shawnwzhang/satellite-imagery-of-xinjiang-re-education-Pre-2016 programme - detention centre-34-%E6%96%B0%E7%96%86%E5%86%8D%E6%95%99%E8%82%B2%E9%9B%86%E4%B8%AD%E8%90%A5%E5%8D%AB%E6%98%9F%E5%9B%BE-34-7a9890946fb3			
947	Changji - VIII		Changji	Changji	44.1000150412229	87.0039516875977	prison - medium security	Satellite - strong	P_SA05, C_SA03, C_SA04 			89							
949	Dabancheng - II		Dabancheng	örÅmqi	43.3795982580635	88.2729913483662	prison - medium security	Satellite - strong				124							
950	Awat - II	B	Awat	Aksu	40.6419894557082	80.3665753233523	camp	Satellite - medium	C_AQ11 			102							
951	Yining County - VIII		Yining County	Ili	43.9758039197748	81.5291244001178	camp	corroborated		Shawn Zhang	24	133				https://medium.com/@shawnwzhang/satellite-imagery-of-xinjiang-re-education-Pre-2016 programme - detention centre-24-%E6%96%B0%E7%96%86%E5%86%8D%E6%95%99%E8%82%B2%E9%9B%86%E4%B8%AD%E8%90%A5%E5%8D%AB%E6%98%9F%E5%9B%BE-24-3f39057838fe			
952	Yining County - X		Yining County	Ili	43.9830904649009	81.5268639076311	camp	corroborated		Shawn Zhang	24	147				https://medium.com/@shawnwzhang/satellite-imagery-of-xinjiang-re-education-Pre-2016 programme - detention centre-24-%E6%96%B0%E7%96%86%E5%86%8D%E6%95%99%E8%82%B2%E9%9B%86%E4%B8%AD%E8%90%A5%E5%8D%AB%E6%98%9F%E5%9B%BE-24-3f39057838fe			
953	Dabancheng - I	B	Dabancheng	örÅmqi	43.3839649387605	88.2998348961873	prison - medium security	sub-compound											
954	Yutian - II	A	Yutian	Hotan	36.8350388669565	81.7587537765264	detention center	sub-compound				26							
955	Hotan City - I	B	Hotan City	Hotan	37.1639364716767	79.8649934766837	detention center	sub-compound				211							
956	Yecheng - I	C	Yecheng	Kashgar	37.9142308692382	77.3473041900405	camp	sub-compound				17							
957	Karakax - VIII	B	Karakax	Hotan	37.1088112711092	79.6377839351542	camp	sub-compound											
958	Shufu - I	A	Shufu	Kashgar	39.3601367188314	75.8643916989575	detention center	sub-compound				136							
959	Hotan County - I	B	Hotan County	Hotan	37.2517057696496	79.8458414020889	camp	sub-compound				232							
960	Hotan County - I	C	Hotan County	Hotan	37.2508494893255	79.852879518544	detention center	sub-compound				203							
961	Kashgar - II	B	Kashgar	Kashgar	39.4542083195094	76.1088388941982	camp	sub-compound				227							
962	Wensu - I	B	Wensu	Aksu	41.3456659908993	80.2402359110565	detention center	sub-compound				129							
963	Lop - I	C	Lop	Hotan	37.1023720270591	80.1808888793815	camp	sub-compound											
964	Lop - I	B	Lop	Hotan	37.1042149540037	80.1814280033935	camp	sub-compound				94							
965	Lop - V		Lop	Hotan	37.1012947812407	80.1780217483082	camp	probably closed				41							
966	Yining County - I	B	Yining County	Ili	44.0012278177236	81.53103114122	detention center	sub-compound				144							
967	Qiemo - III		Qiemo	Bayingolin	38.101176232519	85.5785552356721	detention center	corroborated	P_KO19, C_KO10 	Shawn Zhang	65	214				https://medium.com/@shawnwzhang/satellite-imagery-of-xinjiang-re-education-Pre-2016 programme - detention centre-65-%E6%96%B0%E7%96%86%E5%86%8D%E6%95%99%E8%82%B2%E9%9B%86%E4%B8%AD%E8%90%A5%E5%8D%AB%E6%98%9F%E5%9B%BE-65-8777020022af			
968	Makit - I	A	Makit	Kashgar	38.8371963187365	77.7053186986648	detention center	sub-compound				256							
969	Makit - I	C	Makit	Kashgar	38.8378303354163	77.7116057965957	camp	sub-compound											
970	Qira - II	B	Qira	Hotan	36.9660644414388	80.8125624204245	camp	sub-compound				99							
971	Yengisar - I	A	Yengisar	Kashgar	38.9372877940418	76.0559131212112	detention center	sub-compound				82							
972	Korla - V	B	Korla	Bayingolin	41.7200924494454	86.2922437570201	camp	sub-compound											
973	Zepu - II	B	Zepu	Kashgar	38.079535936335	77.2157215677927	camp	sub-compound				301							
974	Altay - I	B	Altay	Altay	47.7369577411767	88.05455607109	prison - medium security	sub-compound											
975	Barkol - III	B	Barkol	Hami	43.6001067840304	92.9601337081865	camp	sub-compound											
976	Kuqa - III	A	Kuqa	Aksu	41.7527865001978	83.0226559913781	detention center	sub-compound											
977	Kuqa - III	C	Kuqa	Aksu	41.7513331632112	83.0200059688714	prison - medium security	sub-compound				169							
978	Jinghe - I	B	Jinghe	Bortala	44.5430689937027	82.9157099203324	camp	sub-compound				123							
980	Usu - VIII		Usu	Tacheng	44.3740253518013	84.7626999495763	prison - medium security	corroborated				178	XJV DB			https://shahit.biz/eng/#facilities			
981	Wuqia - III		Wuqia	Kizilsu	39.7098834332054	75.1845722603776	camp	Satellite - strong				160							
982	Xayar - III		Xayar	Aksu	41.0045308110149	82.8839286032289	prison - medium security	Satellite - strong				287							
983			Xayar	Aksu	41.0220743794681	82.8501888480825		Pre-2016 programme											
984			Xayar	Aksu	41.0128370862025	82.9104295709322		Pre-2016 programme											
985			Xayar	Aksu	40.9924476982539	82.8873621331943		Pre-2016 programme											
986			Xayar	Aksu	41.0319950323209	82.9493617099152		Pre-2016 programme											
987			Xayar	Aksu	41.0173567677047	82.9857256215837		Pre-2016 programme											
988			Xayar	Aksu	41.0530675871491	82.7513327639707		Pre-2016 programme											
989	Tacheng - I	B	Tacheng	Tacheng	46.7948061695034	83.0711585560678	camp	sub-compound											
990	Wushi - II	A	Wushi	Aksu	41.2078951513866	79.2038322369469	detention center	sub-compound				177							
991	Wushi - II	C	Wushi	Aksu	41.2100562765079	79.2023811618698	camp	sub-compound				185							
992	Lop - VI		Lop	Hotan	37.0455968514205	80.2407590940924	camp	Satellite - medium				139			OSM				
995	Yining City - VIII		Yining City	Ili	43.8961081196602	81.3136680006653	camp	corroborated		Shawn Zhang	92	342		Bitter Winter	OSM	https://zh.bitterwinter.org/handicraft-production-base-converted-into-Pre-2016 programme - detention centre/			
997	Pishan - III		Pishan	Hotan	37.567248505476	78.2943617834557	camp	Satellite - medium				62			OSM				
998	Emin - II		Emin	Tacheng	46.6390237644213	83.616096651552	camp	corroborated				359	XJV DB	RFA	OSM	https://www.rfa.org/uyghur/xewerler/kishilik-hoquq/erpan-hezimjan-terbiyeleshte-04162018153838.html	https://shahit.biz/eng/#facilities		
999			Maralbishi	Kashgar	39.6825090117649	78.0242461744108		Pre-2016 programme							Laogai handbook	https://web.archive.org/web/20120228232013/http://www.laogai.it/wp-content/uploads/2009/06/laogai-handbook.pdf			
1000	Dushanzi - I	B	Dushanzi	Karamay	44.3306204562181	84.8227897429555	camp	sub-compound											
1001	Kuytun - I	B	Kuytun	Ili	44.4125033110181	85.0709910832098	camp	sub-compound				118							
1002	Shawan - I	B	Shawan	Tacheng	44.3460065641046	85.6295102074875	camp	sub-compound				242							
1003	Shawan - III		Shawan	Tacheng	44.3470807085698	85.6389515832199	prison - high security	Satellite - strong				239							
1004	Kunyu - III		Kunyu	XPCC	37.2334915405911	79.3160120426665	detention center	Satellite - strong				365							
1006	Bachu - X		Bachu	Kashgar	39.784210486186	78.5610538902249	camp	Satellite - medium											
1007	Hoxud - II		Hoxud	Bayingolin	42.2557213625953	86.8526999235681	camp	Satellite - medium											
1009	Gaochang - VII		Gaochang	Turpan	42.9793531307681	89.1728379876223	camp	Satellite - medium				134							
1010	Zhaosu - I	B	Zhaosu	Ili	43.1812362847398	81.1344585016069	camp	sub-compound											
1011	Zhaosu - I	C	Zhaosu	Ili	43.180856588384	81.1350646808443	camp	sub-compound											
1012	Zhaosu - I	D	Zhaosu	Ili	43.1826442178727	81.1347884133158	camp	sub-compound				113							
1013	Hotan City - II	B	Hotan City	Hotan	37.1289650239411	79.969849395052	camp	sub-compound											
1014	Hotan City - II	C	Hotan City	Hotan	37.1323651407675	79.970203446642	camp	sub-compound											
1015	Xayar - I	B	Xayar	Aksu	41.2330149243769	82.8326571775615	camp	sub-compound											
1016	Xayar - I	C	Xayar	Aksu	41.232513601986	82.8306186987102	detention center	sub-compound				44							
1017	Baicheng - I	B	Baicheng	Aksu	41.7705120670386	81.8246053920336	detention center	sub-compound				56							
1018	Baicheng - I	C	Baicheng	Aksu	41.7708630770339	81.8210541472979	camp	sub-compound				215							
1019	Luntai - I	B	Luntai	Bayingolin	41.8082358978357	84.2951083123731	prison - medium security	sub-compound				196							
1020	Fuyun - I	B	Fuyun	Altay	46.9979388559468	89.4958065394718	camp	sub-compound											
1021	Hejing - I	B	Hejing	Bayingolin	42.3112918512769	86.3138795164227	detention center	sub-compound				383							
1022	Hejing - I	C	Hejing	Bayingolin	42.3133705138339	86.2942200347624	camp	sub-compound											
1023	Tekes - I	B	Tekes	Ili	43.198491259557	81.8273857433775	camp	sub-compound				69							
1024	Jeminay - I	B	Jeminay	Altay	47.4371227046047	85.8597391004698	camp	sub-compound											
1025	Wuqia - I	B	Wuqia	Kizilsu	39.7246777145947	75.2629770138579	camp	sub-compound											
1026	Wuqia - I	C	Wuqia	Kizilsu	39.7237854132047	75.2630950310545	detention center	sub-compound											
1027	Shihezi - IV	B	Shihezi	XPCC	44.243948551386	85.9549468051809	camp	sub-compound											
1028	Artux - X		Artux	Kizilsu	39.6421767693601	75.987309990551	detention center	Satellite - strong				382							
1029	Yutian - VI		Yutian	Hotan	36.9950461702775	81.6730942527243	camp	Satellite - medium				14							
1030	Baijiantan - II		Baijiantan		45.6986868219182	85.1565217207205	camp	Satellite - strong				22							
1031	Qiemo - V		Qiemo	Bayingolin	38.1441806689848	85.5206445318021	camp	Satellite - medium				201							
1032	Shule - IX		Shule	Kashgar	39.3679537161606	76.0104279955109	detention center	Satellite - strong				380							
1033	Xayar - IV		Xayar	Aksu	41.2397550566751	82.7741344270545	camp	Satellite - medium				112							
1034	Changji - IX		Changji	Changji	44.1008317292623	86.9941240737672	detention center	sub-compound		Shawn Zhang	86	87				https://medium.com/@shawnwzhang/satellite-imagery-of-xinjiang-re-education-Pre-2016 programme - detention centre-86-8137ce0b8b82			
1035	Nilka - I	B	Nilka	Ili	43.8162611420859	82.5131966878897	camp	sub-compound				125							
1036	Makit - IV		Makit	Kashgar	38.9951001971493	77.668540114732	camp	Satellite - medium				361							
1037	Makit - V		Makit	Kashgar	38.9046190271304	77.6150985773116	camp	Satellite - medium				357							
1038	Lop - VII		Lop	Hotan	37.0500685886875	80.2296083965236	camp	Satellite - medium				350							
1039	Karakax - X		Karakax	Hotan	37.1467893875268	79.6553171973859	camp	Satellite - medium				358							
1040	Jimsar - II		Jimsar	Changji	44.0012441410527	89.2187985330882	camp	Satellite - medium				378							
1041	Qinghe - II		Qinghe	Altay	46.6755463751251	90.2935559642335	detention center	Satellite - strong				384							
1042	Bole - V		Bole	Bortala	44.8870399927925	81.9609963011359	camp	Satellite - strong				140							
1043	Shuimogou - II		Shuimogou	örÅmqi	43.8905727356175	87.6841446381766	camp	corroborated				150	XJV DB			https://shahit.biz/eng/#facilities			
1044	Wensu - VII		Wensu	Aksu	41.3826689467344	80.6835793763448	camp	Satellite - strong				151							
1045	Fuyun - II		Fuyun	Altay	47.0002803505177	89.5000337008793	camp	Satellite - medium				166							
1046	Xinshi - XII		Xinshi	örÅmqi	43.8955444318899	87.5751854827668	camp	Satellite - strong				263							
1047	Shuimogou - III		Shuimogou	örÅmqi	43.822241843274	87.6929636850793	camp	Satellite - medium				270							
1048	Kunyu - IV		Kunyu	XPCC	37.6881305263445	78.47380943549	camp	Satellite - medium				362							
1049	Pishan - V		Pishan	Hotan	37.6162577149658	78.2770489636176	camp	Satellite - medium				363							
1050	Fuhai - V		Fuhai	Altay	46.8936849728891	87.8409886399659	prison - medium security	corroborated				372			Laogai handbook	https://web.archive.org/web/20120228232013/http://www.laogai.it/wp-content/uploads/2009/06/laogai-handbook.pdf			
1051	Bole - VI		Bole	Bortala	44.8198352192956	82.1994498704852	detention center	Satellite - strong				376							
1052	Tiemenguan - V		Tiemenguan	XPCC	41.7967404681759	85.8888784672327		Pre-2016 programme											
1054	Shache - XIII		Shache	Kashgar	38.3893967357576	77.2712585429033	camp	Satellite - medium											
1055	Changji - I	B	Changji	Changji	44.1042216344847	86.9993812034364	detention center	sub-compound											
1056	Hutubi - I	C	Hutubi	Changji	44.2070038821481	86.892646355198	detention center	sub-compound											
1057	Hutubi - I	B	Hutubi	Changji	44.2064977036119	86.8926141686898	detention center	sub-compound											
1058	Xinyuan 6 - VI		Xinyuan	Ili	43.4633781041669	83.2798425671888	detention center	Satellite - strong											
1059	Yizhou - I	B	Yizhou	Hami	42.8627487748825	93.5178889579257	prison - medium security	sub-compound											
1060	Gongliu - I	B	Gongliu	Ili	43.5206273362398	82.209001808508	detention center	sub-compound											
1061	Yining City - II	B	Yining City	Ili	43.9031111190735	81.3879511425325	detention center	sub-compound											
1062	Toli - I	B	Toli	Tacheng	45.9201282739594	83.6033318503833	detention center	sub-compound											
1063	Mori - I	B	Mori	Changji	43.8199609542737	90.2837023635566	detention center	sub-compound											
1064	Jimsar - I	B	Jimsar	Changji	43.9852557045184	89.1412021245193	detention center	sub-compound											
1065	Akqi - I	B	Akqi	Kizilsu	40.9335705329045	78.442904101108	camp	sub-compound											
1066	Karakax - II	B	Karakax	Hotan	37.2777166466817	79.7459593663064	camp	sub-compound											
1067	Xinshi - XIII	B	Xinshi	örÅmqi	43.9405394524889	87.5741783958341	prison - medium security	sub-compound											
1068	Pishan - II	B	Pishan	Hotan	37.5823595373765	78.2838575728399	camp	sub-compound											
1069	Yiwu - II	B	Yiwu	Hami	43.2314769671922	94.6619308709211	detention center	sub-compound											
1070	Pishan - I	B	Pishan	Hotan	37.5689125914929	78.2418291030741	detention center	sub-compound											
1071	Yanqi - II	B	Yanqi	Bayingolin	42.0497426890446	86.5471499875537	camp	sub-compound											
1072	Qinghe - III		Qinghe	Altay	46.6764591766132	90.2957446467897	prison - medium security	Satellite - strong				109							
1073	Artux - XI		Artux	Kizilsu	39.6402600344745	75.988382874157	camp	Satellite - strong											
1074	Taxkorgan - I	B	Taxkorgan	Kashgar	37.7798383910066	75.2282061619722	detention center	sub-compound											
1075	Akto - III	B	Akto	Kizilsu	39.1149844452038	75.9257704450167	detention center	sub-compound											
1076			Xayar	Aksu	41.0294784573195	82.9266114876397		Pre-2016 programme					XJV DB			https://shahit.biz/eng/#facilities			
1077	Qitai - III		Qitai	Changji	43.9882292199745	89.6048305496563	camp	corroborated					XJV DB			https://shahit.biz/eng/#facilities			
1078	Karamay - IV		Karamay	Karamay	45.616037284087	84.8377043203652	camp	probably closed					XJV DB			https://shahit.biz/eng/#facilities			
1079			Shawan	Tacheng	44.5196927899733	85.4623711274156		Pre-2016 programme					XJV DB			https://shahit.biz/eng/#facilities			
1080			Shawan	Tacheng	44.5183391180277	85.4341768410716		Pre-2016 programme					XJV DB			https://shahit.biz/eng/#facilities			
1081	Emin - IV		Emin	Tacheng	46.5663237350559	83.6555177646048	camp	probably closed											
1082	Korla - IX		Korla	Bayingolin	41.729202	86.108389	detention center	closed						BuzzFeed News					
1083	Awat - V		Awat	Aksu	40.637168	80.266755	detention center	corroborated					XJV DB			https://shahit.biz/eng/#facilities			
